# id,name,mesonet,lat,lon,elevation,agl,cit,state,country,active
C7959,CW7959 Stornoway                     UK,APRSWXNET,58.248958587646484,-6.176310062408447,30.0,-9999.0,null,null,null,true
AT970,KF2XN Grand Island                NY US,APRSWXNET,43.036170959472656,-78.94803619384766,177.0,-9999.0,null,null,null,true
KFWH1,KII                              HI US,RAWS,21.68829917907715,-157.95249938964844,1.5,-9999.0,null,null,null,true
C7952,CW7952 Harwich                       UK,APRSWXNET,51.92620849609375,1.2642600536346436,3.0,-9999.0,null,null,null,true
C7956,CW7956 Sheffield Lake             OH US,APRSWXNET,41.4900016784668,-82.08734893798828,183.0,-9999.0,null,null,null,true
MCAN3,MASCOMA RIVER AT MASCOMA         NH US       NHDES,HADS2,43.64860916137695,-72.18193817138672,230.10000610351562,-9999.0,null,null,null,true
C6623,CW6623 Los Altos Hills            CA US,APRSWXNET,37.36949920654297,-122.16583251953125,19.0,-9999.0,null,null,null,true
BRNK2,GREEN RIVER AT BROWNSVILLE       KY US  USARMY-COE,HADS2,37.206939697265625,-86.2611083984375,170.6999969482422,-9999.0,null,null,null,true
LWAO2,LITTLE WASHITA #1                OK US SCAN,utmesnet,34.95000076293945,-97.9800033569336,358.1000061035156,-9999.0,null,null,null,true
BBN,BOUNTIFUL BENCH                  UT US KSL,utmesnet,40.88999938964844,-111.8499984741211,1521.0,-9999.0,null,null,null,true
C7955,CW7955 Aberdeen                   NC US,APRSWXNET,35.127830505371094,-79.39949798583984,158.8000030517578,-9999.0,null,null,null,true
BPHEB,Mount Hebo                       OR US,utmesnet,45.21342849731445,-123.75499725341797,966.2000122070312,-9999.0,null,null,null,true
MEGT2,MCGREGOR                         TX US,RAWS,31.383899688720703,-97.41280364990234,193.89999389648438,-9999.0,null,null,null,true
D8607,DW8607 Tyrnava                       FI,APRSWXNET,64.57283020019531,26.094669342041016,87.0,-9999.0,null,null,null,true
AT969,K4LRP Malabar                     FL US,APRSWXNET,28.007150650024414,-80.59893798828125,4.599999904632568,-9999.0,null,null,null,true
AR307,W6KL Burbank                      CA US,APRSWXNET,34.16999816894531,-118.33300018310547,172.1999969482422,-9999.0,null,null,null,true
AT968,VE7ALB Saanich                    BC CA,APRSWXNET,48.47999954223633,-123.37629699707031,61.099998474121094,-9999.0,null,null,null,true
AS638,G4KIV Knaresborough              NYK UK,APRSWXNET,54.00059127807617,-1.454450011253357,51.0,-9999.0,null,null,null,true
D8609,DW8609 Denver                     CO US,APRSWXNET,39.57865905761719,-104.95704650878906,1709.0,-9999.0,null,null,null,true
SUSW2,ELK RIVER NEAR SUTTON 2SE        WV US  USARMY-COE,HADS2,38.662498474121094,-80.709716796875,243.8000030517578,-9999.0,null,null,null,true
AS631,ON7BE-5 Lierneux                     BE,APRSWXNET,50.27299880981445,5.848830223083496,446.0,-9999.0,null,null,null,true
AR300,KF4CQ The Villages                FL US,APRSWXNET,28.939180374145508,-81.92938232421875,29.0,-9999.0,null,null,null,true
AT963,KJ4YLP Seneca                     SC US,APRSWXNET,34.704429626464844,-83.00575256347656,274.0,-9999.0,null,null,null,true
AS632,SV3BEF-4 Korifi                      GR,APRSWXNET,37.75986099243164,21.437929153442383,299.0,-9999.0,null,null,null,true
AR301,N5KUK Norman                      OK US,APRSWXNET,35.220829010009766,-97.41416931152344,371.0,-9999.0,null,null,null,true
AT961,NL3D-13 Anchorage                 AK US,APRSWXNET,61.12746047973633,-149.7539825439453,210.0,-9999.0,null,null,null,true
D8600,DW8600 Kendall                    NY US,APRSWXNET,43.36766815185547,-78.00682830810547,86.0,-9999.0,null,null,null,true
D8601,DW8601 Herndon                    VA US,APRSWXNET,39.00333023071289,-77.36750030517578,85.30000305175781,-9999.0,null,null,null,true
AT960,WA3USG Mechanicsburg              PA US,APRSWXNET,40.17782974243164,-77.07350158691406,200.0,-9999.0,null,null,null,true
AR304,AA6HF-5 Cathedral City            CA US,APRSWXNET,33.84918975830078,-116.48072052001953,134.0,-9999.0,null,null,null,true
AT965,KC7MRQ Ronan                      MT US,APRSWXNET,47.526798248291016,-114.09200286865234,935.7000122070312,-9999.0,null,null,null,true
AR302,N4NW Stafford County              VA US,APRSWXNET,38.46083068847656,-77.46282958984375,101.5,-9999.0,null,null,null,true
AR303,DL1BLU Schortens                     DE,APRSWXNET,53.54716873168945,7.954999923706055,5.0,-9999.0,null,null,null,true
AT964,IW0GZ Monterotondo                   IT,APRSWXNET,42.05582809448242,12.616669654846191,160.0,-9999.0,null,null,null,true
FFTK2,KENTUCKY RIVER AT LOCK AND DAM 4 KY US  USARMY-COE,HADS2,38.2016716003418,-84.88166809082031,152.39999389648438,-9999.0,null,null,null,true
GSTK2,KENTUCKY RIVER LOCK 3 AT GEST    KY US  USARMY-COE,HADS2,38.41667175292969,-84.88082885742188,149.39999389648438,-9999.0,null,null,null,true
STP5,Alma, WI,gpsmet,44.30390167236328,-91.90299987792969,384.0985107421875,-9999.0,null,null,null,true
C5307,CW5307 Columbia                   MD US,APRSWXNET,39.19599914550781,-76.79566955566406,100.5999984741211,-9999.0,null,null,null,true
MODP1,WEST BRANCH BRANDYWINE CREEK AT  PA US        USGS,HADS2,39.961669921875,-75.80166625976562,80.80000305175781,-9999.0,null,null,null,true
C7969,CW7969 Altos de Pipe                 VE,APRSWXNET,10.395509719848633,-66.98650360107422,1714.0,-9999.0,null,null,null,true
ELKC1,ELK VALLEY 5S                    CA US         NWS,HADS2,41.99306106567383,-123.71861267089844,519.7000122070312,-9999.0,null,null,null,true
UTDEV,I-84 @ Devils Slide              UT US UTAH DOT,utmesnet,41.056800842285156,-111.5322036743164,1600.199951171875,-9999.0,null,null,null,true
ELKC2,ELK RIVER                        CO US SNOTEL,utmesnet,40.849998474121094,-106.97000122070312,2651.800048828125,-9999.0,null,null,null,true
C5302,CW5302 Roseburg                   OR US,APRSWXNET,43.224998474121094,-123.38133239746094,125.0,-9999.0,null,null,null,true
BCP,BLACK CROOK PEAK                 UT US TOOELE,utmesnet,39.99004364013672,-112.54368591308594,2827.0,-9999.0,null,null,null,true
AS628,K9SCH Enumclaw                    WA US,APRSWXNET,47.19449996948242,-121.98716735839844,226.0,-9999.0,null,null,null,true
AT959,DL9MSR-6 Wendelstein                 DE,APRSWXNET,49.3494987487793,11.10669994354248,343.8999938964844,-9999.0,null,null,null,true
D8618,DW8618 Nerja                         ES,APRSWXNET,36.75917053222656,-3.8738300800323486,86.0,-9999.0,null,null,null,true
AS629,W7PLZ-3 Litchfield Park           AZ US,APRSWXNET,33.52867889404297,-112.35314178466797,331.0,-9999.0,null,null,null,true
BCBA3,BURRO CREEK AT U.S. 93 BRIDGE    AZ US        USGS,HADS2,34.54167175292969,-113.44444274902344,582.5,-9999.0,null,null,null,true
AT958,W0DP Ames                         IA US,APRSWXNET,42.07830047607422,-93.65869903564453,298.0,-9999.0,null,null,null,true
D8619,DW8619 Monroe                     NY US,APRSWXNET,41.30141830444336,-74.16699981689453,238.0,-9999.0,null,null,null,true
AS626,K3WIL-2 West Chester              PA US,APRSWXNET,39.817169189453125,-75.8331298828125,130.0,-9999.0,null,null,null,true
AT957,NV6B North Fork                   CA US,APRSWXNET,37.24903869628906,-119.56051635742188,942.9000244140625,-9999.0,null,null,null,true
AS627,W3QA-2 West Chester               PA US,APRSWXNET,39.97800064086914,-75.6363296508789,128.0,-9999.0,null,null,null,true
ORAI3,TIPPECANOE RIVER AT ORA          IN US        USGS,HADS,41.15721893310547,-86.56360626220703,214.89999389648438,-9999.0,null,null,null,true
AS621,K6TGT Granada Hills               CA US,APRSWXNET,34.299320220947266,-118.5124282836914,431.0,-9999.0,null,null,null,true
AT951,N6DQX Redmond                     OR US,APRSWXNET,44.265830993652344,-121.26667022705078,922.0,-9999.0,null,null,null,true
RNDI2,REND LAKE NEAR REND              IL US  USARMY-COE,HADS2,38.033329010009766,-88.95667266845703,138.6999969482422,-9999.0,null,null,null,true
D8611,DW8611 Rougemont                     CH,APRSWXNET,46.4900016784668,7.211999893188477,1018.0,-9999.0,null,null,null,true
AT950,KG4GWW Marietta                   GA US,APRSWXNET,34.019500732421875,-84.47367095947266,335.29998779296875,-9999.0,null,null,null,true
D8613,DW8613 Ten Sleep                  WY US,APRSWXNET,44.040000915527344,-107.44999694824219,1362.5,-9999.0,null,null,null,true
AT956,W5DNT Hamilton                    TX US,APRSWXNET,31.600000381469727,-98.12999725341797,356.0,-9999.0,null,null,null,true
AS625,KF6RAL-5 Chokecherry Hollow       ID US,APRSWXNET,42.018798828125,-111.25655364990234,1837.0,-9999.0,null,null,null,true
AT954,K7JDK Portland                    OR US,APRSWXNET,45.45399856567383,-122.69400024414062,120.69999694824219,-9999.0,null,null,null,true
AS622,ND0B-1 Cathay                     ND US,APRSWXNET,47.57550048828125,-99.41683197021484,486.0,-9999.0,null,null,null,true
D8615,DW8615 Burnsville                 NC US,APRSWXNET,35.8650016784668,-82.31716918945312,914.4000244140625,-9999.0,null,null,null,true
WFPM4,WHITEFISH POINT,MQT_Meso,46.766998291015625,-84.96700286865234,204.89999389648438,-9999.0,null,null,null,true
AT992,K0RLV Holden                      MO US,APRSWXNET,38.70323181152344,-93.98908996582031,273.0,-9999.0,null,null,null,true
AS661,WW6RY Lancaster                   CA US,APRSWXNET,34.777000427246094,-118.27749633789062,751.0,-9999.0,null,null,null,true
AT991,KG4DRP Miami                      FL US,APRSWXNET,25.71367073059082,-80.42703247070312,2.200000047683716,-9999.0,null,null,null,true
C6609,CW6609 Arlington                  MA US,APRSWXNET,42.43193817138672,-71.17170715332031,97.0,-9999.0,null,null,null,true
C7931,CW7931 Wellsboro                  PA US,APRSWXNET,41.743831634521484,-77.2925033569336,460.20001220703125,-9999.0,null,null,null,true
SEDK1,LITTLE ARKANSAS RVR AT FRY BRIDG KS US        USGS,HADS2,37.883060455322266,-97.4241714477539,418.5,-9999.0,null,null,null,true
C7933,CW7933 Johnson City               NY US,APRSWXNET,42.104671478271484,-75.9638900756836,258.0,-9999.0,null,null,null,true
GFNG1,CABIN CREEK AT NORTH SECOND STRE GA US        USGS,HADS2,33.271671295166016,-84.23638916015625,231.60000610351562,-9999.0,null,null,null,true
AR328,N1EO Center Harbor                NH US,APRSWXNET,43.69832992553711,-71.4854965209961,252.39999389648438,-9999.0,null,null,null,true
AS659,N4APD-1 Altamonte Springs         FL US,APRSWXNET,28.664329528808594,-81.35900115966797,31.0,-9999.0,null,null,null,true
AS653,DG1HVV-3 Oebles-Schlechtewitz        DE,APRSWXNET,51.413780212402344,11.945210456848145,83.0,-9999.0,null,null,null,true
AT984,W5SRG Pearland                    TX US,APRSWXNET,29.558019638061523,-95.30058288574219,12.300000190734863,-9999.0,null,null,null,true
AR320,K6TZ Diablo Peak                  CA US,APRSWXNET,34.029571533203125,-119.78605651855469,757.0999755859375,-9999.0,null,null,null,true
AR321,K6DJR W.Menlo Park                CA US,APRSWXNET,37.434669494628906,-122.20632934570312,35.099998474121094,-9999.0,null,null,null,true
AT982,EA4GDE-1 Madrid                      ES,APRSWXNET,40.43204879760742,-3.6974499225616455,679.0,-9999.0,null,null,null,true
AS652,KB1MTS Ayer                       MA US,APRSWXNET,42.5483283996582,-71.56082916259766,92.0,-9999.0,null,null,null,true
AT987,KB0KBJ-3 Hayti                    SD US,APRSWXNET,44.65700149536133,-97.20366668701172,533.7000122070312,-9999.0,null,null,null,true
AS655,KE3HG-2 Pottstown                 PA US,APRSWXNET,40.224998474121094,-75.65450286865234,74.0,-9999.0,null,null,null,true
AS656,KB0NLY-3 Tyler                    MN US,APRSWXNET,44.27682876586914,-96.12982940673828,528.2000122070312,-9999.0,null,null,null,true
C6617,CW6617 Sandhurst                     UK,APRSWXNET,51.352169036865234,-0.773829996585846,83.0,-9999.0,null,null,null,true
CHKF1,CHEKIKA                          FL US,RAWS,25.625,-80.57969665527344,1.5,-9999.0,null,null,null,true
AT981,AC0HB-1 Marion                    IA US,APRSWXNET,42.04800033569336,-91.57450103759766,262.8999938964844,-9999.0,null,null,null,true
C6611,CW6611 Horsham                    PA US,APRSWXNET,40.1922607421875,-75.13004302978516,92.30000305175781,-9999.0,null,null,null,true
C7945,CW7945 Chalfont                   PA US,APRSWXNET,40.292999267578125,-75.22049713134766,106.69999694824219,-9999.0,null,null,null,true
C6612,CW6612 Cambridge                  MA US,APRSWXNET,42.3603515625,-71.08927154541016,94.0,-9999.0,null,null,null,true
C7946,CW7946 Malta                      NY US,APRSWXNET,42.97576904296875,-73.7845230102539,123.0,-9999.0,null,null,null,true
C6614,CW6614 Edmonton                   AB CA,APRSWXNET,53.425880432128906,-113.46591186523438,687.0,-9999.0,null,null,null,true
AR319,VK7HDM-5 Hobart                  TAS AU,APRSWXNET,-42.74205017089844,147.26690673828125,36.0,-9999.0,null,null,null,true
ULMM8,MISSOURI RIVER NEAR ULM 6E       MT US  USARMY-COE,HADS2,47.435829162597656,-111.38667297363281,1009.7999877929688,-9999.0,null,null,null,true
WRSN6,OATKA CREEK AT WARSAW 18SSE      NY US  USARMY-COE,HADS2,42.744171142578125,-78.13777923583984,524.2999877929688,-9999.0,null,null,null,true
TRDF1,Trident Pier, FL,NOS-NWLON,28.415000915527344,-80.59300231933594,0.0,-9999.0,null,null,null,true
AT974,N8VOE Tucson                      AZ US,APRSWXNET,32.292701721191406,-110.769287109375,831.2000122070312,-9999.0,null,null,null,true
AS642,WD4LUQ Dallas                     GA US,APRSWXNET,33.947669982910156,-84.84400177001953,286.5,-9999.0,null,null,null,true
AR312,WA6BAY-1 Soquel                   CA US,APRSWXNET,37.00217056274414,-121.93633270263672,137.5,-9999.0,null,null,null,true
AT973,WA6FIG Aurora                     CO US,APRSWXNET,39.677669525146484,-104.85517120361328,1603.0,-9999.0,null,null,null,true
AS643,K9SET Corydon                     IN US,APRSWXNET,38.208988189697266,-86.11157989501953,193.0,-9999.0,null,null,null,true
AS640,N1JKL Littleton                   MA US,APRSWXNET,42.54582977294922,-71.50450134277344,90.0,-9999.0,null,null,null,true
AT971,WD8MBE Massillon                  OH US,APRSWXNET,40.795448303222656,-81.45609283447266,326.1000061035156,-9999.0,null,null,null,true
AS641,W3JBS-2 Westtown                  PA US,APRSWXNET,39.95111083984375,-75.51045989990234,105.0,-9999.0,null,null,null,true
AR315,OH6GPB-1 Pietarsaari                 FI,APRSWXNET,63.668331146240234,22.7066707611084,12.0,-9999.0,null,null,null,true
AR316,N7OKG Deer Park                   WA US,APRSWXNET,48.085330963134766,-117.43183135986328,757.4000244140625,-9999.0,null,null,null,true
AT977,KC2ZGI Long lake                    NY,APRSWXNET,43.979251861572266,-74.43441772460938,503.0,-9999.0,null,null,null,true
AR313,WB6AHC-1 San Jose                 CA US,APRSWXNET,37.21833038330078,-121.85166931152344,81.4000015258789,-9999.0,null,null,null,true
CEDC,CEDARVILLE                       CA US AGRIMET,utmesnet,41.58528137207031,-120.17138671875,1402.0999755859375,-9999.0,null,null,null,true
AT975,F4UJU-13 Saumur                      FR,APRSWXNET,47.27320098876953,-0.07100000232458115,26.700000762939453,-9999.0,null,null,null,true
YEAA2,YUKON R AT EAGLE AK                    USGS,HADS,64.78943634033203,-141.19778442382812,287.3970031738281,-9999.0,null,null,null,true
SSMM8,SOUTH SAWMILL CREEK              MT US,RAWS,47.562198638916016,-107.52860260009766,1002.7999877929688,-9999.0,null,null,null,true
VNMI4,RACCOON RIVER AT VAN METER       IA US  USARMY-COE,HADS2,41.53388977050781,-93.94972229003906,256.29998779296875,-9999.0,null,null,null,true
KETI1,KETCHUM RANGER STATION NEAR KETC ID US        USBR,HADS2,43.68416976928711,-114.36028289794922,1795.300048828125,-9999.0,null,null,null,true
BTTM5,BAUDETTE                         MN US,RAWS,48.6702995300293,-94.61720275878906,339.20001220703125,-9999.0,null,null,null,true
FLDW4,FOUR LAKES AND FRENCH CREEK DITC WY US       WYSTO,HADS2,44.337799072265625,-106.99749755859375,2560.300048828125,-9999.0,null,null,null,true
ACHC2,SOUTH PLATTE RVR ABV CHEESMAN RE CO US        USGS,HADS2,39.16278076171875,-105.30972290039062,2086.699951171875,-9999.0,null,null,null,true
HTV5,Hartsville, TN,gpsmet,36.35770034790039,-86.08999633789062,196.89439392089844,-9999.0,null,null,null,true
LLAT2,Llano River at Llano,LCRA_quart,30.751169204711914,-98.66972351074219,299.1419982910156,-9999.0,null,null,null,true
SJST2,7NW San Angelo, TX,WT-Meso,31.54262924194336,-100.5132827758789,596.5,-9999.0,null,null,null,true
C7911,CW7911 Sebago                     ME US,APRSWXNET,43.879180908203125,-70.63127136230469,89.0,-9999.0,null,null,null,true
AT927,SQ3FYK Poznan                        PL,APRSWXNET,52.360801696777344,16.906200408935547,66.0,-9999.0,null,null,null,true
ARTN6,BLACK RIVER AT WATERTOWN         NY US        USGS,HADS2,43.98556137084961,-75.92500305175781,114.0,-9999.0,null,null,null,true
HRKC1,HARKNESS FLAT NEAR CHESTER 8NNW  CA US       CADWR,HADS2,40.418331146240234,-121.2750015258789,1889.800048828125,-9999.0,null,null,null,true
WRSM7,OSAGE RIVER AT WARSAW            MO US  USARMY-COE,HADS2,38.261390686035156,-93.4044418334961,193.5,-9999.0,null,null,null,true
WRSM8,WISE RIVER                       MT US,RAWS,45.78329849243164,-112.93329620361328,1738.5999755859375,-9999.0,null,null,null,true
AT924,WX4F Pilot Mountain               NC US,APRSWXNET,36.370628356933594,-80.47466278076172,330.0,-9999.0,null,null,null,true
AT929,N5RN-6 White Hall                 AR US,APRSWXNET,34.279788970947266,-92.10320281982422,79.69999694824219,-9999.0,null,null,null,true
AT923,N6TVE-11 San Marcos Pass          CA US,APRSWXNET,34.499168395996094,-119.81783294677734,640.0999755859375,-9999.0,null,null,null,true
KNNC1,KNEELAND                         CA US,RAWS,40.720001220703125,-123.92829895019531,834.2000122070312,-9999.0,null,null,null,true
AT921,W7CBM Salt Lake City              UT US,APRSWXNET,40.6531982421875,-111.85484313964844,1335.300048828125,-9999.0,null,null,null,true
C7925,CW7925 Holiday Island             AR US,APRSWXNET,36.493831634521484,-93.72250366210938,339.8999938964844,-9999.0,null,null,null,true
GSTO3,GERBER RESERVOIR                 OR US SNOTEL,utmesnet,42.209999084472656,-121.12999725341797,1478.300048828125,-9999.0,null,null,null,true
LWAT2,Lake Austin at Davenport Ranch,LCRA_quart,30.348560333251953,-97.7967300415039,147.55299377441406,-9999.0,null,null,null,true
C7929,CW7929 Yucca Valley               CA US,APRSWXNET,34.10029983520508,-116.38851165771484,1105.800048828125,-9999.0,null,null,null,true
OXSYZ,SANTA YNEZ                       CA US SBCAPCD,utmesnet,34.60829162597656,-120.07318115234375,210.0,-9999.0,null,null,null,true
JLNC1,JULIAN SAN DIEGO                       CA,,33.0797004699707,-116.60279846191406,1291.9000244140625,-9999.0,null,null,null,true
C7923,CW7923 Albuquerque                NM US,APRSWXNET,35.1510009765625,-106.71900177001953,1593.0,-9999.0,null,null,null,true
C7921,CW7921 New Topsail Beach          NC US,APRSWXNET,34.35749816894531,-77.64116668701172,9.5,-9999.0,null,null,null,true
AT915,DF7XF Gelsenkirchen                  DE,APRSWXNET,51.49633026123047,7.107500076293945,50.0,-9999.0,null,null,null,true
AT914,N8PFF Zanesville                  OH US,APRSWXNET,39.98283004760742,-82.01583099365234,247.0,-9999.0,null,null,null,true
AT919,N9KEL Marengo                     IL US,APRSWXNET,42.200199127197266,-88.65910339355469,246.0,-9999.0,null,null,null,true
AT918,W5UE Kiln                         MS US,APRSWXNET,30.40169906616211,-89.44969940185547,5.199999809265137,-9999.0,null,null,null,true
AT917,EB2EMZ-15 Llodio                     ES,APRSWXNET,43.14360809326172,-2.9633400440216064,125.0,-9999.0,null,null,null,true
TJMN2,TOE JAM                          NV US SNOTEL,utmesnet,41.31999969482422,-116.33999633789062,2362.199951171875,-9999.0,null,null,null,true
TLST2,Tulia 2NE,WT-Meso,34.542938232421875,-101.7405014038086,1060.0999755859375,-9999.0,null,null,null,true
ITKA2,Sitka, AK,NOS-NWLON,57.051700592041016,-135.34170532226562,0.0,-9999.0,null,null,null,true
IMWN2,IMMIGRATION WASH                 NV US,RAWS,37.919700622558594,-114.16670227050781,1898.9000244140625,-9999.0,null,null,null,true
PKGM5,POKEGAMA LAKE DAM NEAR GRAND RAP MN US  USARMY-COE,HADS,47.250831604003906,-93.58638763427734,390.1000061035156,-9999.0,null,null,null,true
AT910,N2EYI Johns Creek                 GA US,APRSWXNET,34.07271957397461,-84.18596649169922,333.0,-9999.0,null,null,null,true
BTTK1,PAWNEE RIVER NEAR BURDETT 7WNW   KS US        USGS,HADS2,38.206668853759766,-99.64305877685547,650.7000122070312,-9999.0,null,null,null,true
SOAC1,SODA CREEK                       CA US,RAWS,39.42499923706055,-122.97720336914062,525.7999877929688,-9999.0,null,null,null,true
NEAO1,LICKING RIVER NEAR NEWARK (WATER OH US  USARMY-COE,HADS2,40.05916976928711,-82.3397216796875,237.39999389648438,-9999.0,null,null,null,true
QLDI2,MISS RVR AT LOCK & DAM #21 NR QU IL US  USARMY-COE,HADS2,39.904170989990234,-91.4366683959961,147.1999969482422,-9999.0,null,null,null,true
AS617,W8GUC Vandalia                    OH US,APRSWXNET,39.8731689453125,-84.20883178710938,310.0,-9999.0,null,null,null,true
AT949,KI4AMD Glade Spring               VA US,APRSWXNET,36.730899810791016,-81.74169921875,614.2000122070312,-9999.0,null,null,null,true
TRDA2,Richardson Hwy @ Trims DOT MS MP 218.2,akdotroad,63.41604995727539,-145.74929809570312,755.0,-9999.0,null,null,null,true
AT948,KD5JXJ-2 Tupelo                   MS US,APRSWXNET,34.236698150634766,-88.67610168457031,74.69999694824219,-9999.0,null,null,null,true
AS618,W4DEX-2 Locust                    NC US,APRSWXNET,35.26033020019531,-80.42250061035156,226.0,-9999.0,null,null,null,true
AS615,SR7WXC Lodz                          PL,APRSWXNET,51.70249938964844,19.47949981689453,188.0,-9999.0,null,null,null,true
AT947,IK4DRY-3 Ravenna                     IT,APRSWXNET,44.47330093383789,12.089500427246094,2.5999999046325684,-9999.0,null,null,null,true
AT946,EA2RCU-15 Barrio san Bartolome       ES,APRSWXNET,43.13330078125,-2.950000047683716,200.0,-9999.0,null,null,null,true
MITC2,DEEP CREEK                       CO US,RAWS,39.77360153198242,-107.64689636230469,2866.300048828125,-9999.0,null,null,null,true
AT941,VE3EP Cherry Valley               ON CA,APRSWXNET,43.914878845214844,-77.18699645996094,86.0,-9999.0,null,null,null,true
AT940,CS1APO-11 Chamusca                   PT,APRSWXNET,39.354000091552734,-8.467300415039062,125.0,-9999.0,null,null,null,true
AS610,AF5AA Bell City                   LA US,APRSWXNET,30.019350051879883,-93.13037109375,3.0999999046325684,-9999.0,null,null,null,true
TAST2,Tahoka 3NE,WT-Meso,33.20746994018555,-101.78019714355469,946.0999755859375,-9999.0,null,null,null,true
AT945,KG6OPD-13 Nordland                WA US,APRSWXNET,48.05630111694336,-122.6865005493164,12.899999618530273,-9999.0,null,null,null,true
CTNC1,COTTONWOOD NEAR PLATINA 7WSW     CA US,HADS2,40.31694030761719,-122.88111114501953,1036.300048828125,-9999.0,null,null,null,true
AT944,N5DTX-6 Montague                  TX US,APRSWXNET,33.689170837402344,-97.76750183105469,352.0,-9999.0,null,null,null,true
RCDI4,Cedar Rapids (I-380),iadotmet,41.97800064086914,-91.67449951171875,235.8000030517578,-9999.0,null,null,null,true
AS614,KB5DPX Petoskey                   MI US,APRSWXNET,45.361270904541016,-84.95110321044922,228.0,-9999.0,null,null,null,true
AT943,IK5NLA Vaiano                        IT,APRSWXNET,43.966670989990234,11.103670120239258,520.0,-9999.0,null,null,null,true
AS612,MEARES Cape Meares                OR US,APRSWXNET,45.466068267822266,-123.92098236083984,433.0,-9999.0,null,null,null,true
BIG,Coxs Well,arlfrd,43.29409408569336,-113.18161010742188,1585.0,-9999.0,null,null,null,true
C7904,CW7904 Fremont                    OH US,APRSWXNET,41.3371696472168,-83.20066833496094,201.0,-9999.0,null,null,null,true
GSTPS,Giant Steps                      UT US AVALANCHE,utmesnet,40.836299896240234,-111.05428314208984,2781.60009765625,-9999.0,null,null,null,true
FLDT1,FORT LOUDON DAM RAIN GAUGE NR LE TN US         TVA,HADS2,35.79222106933594,-84.24555969238281,239.3000030517578,-9999.0,null,null,null,true
NKTA2,Nikiski,nosports,60.68299865722656,-151.3979949951172,0.0,-9999.0,null,null,null,true
OCWC1,BORREGO SPRINGS SAN DIEGO              CA,,33.15829849243164,-116.16670227050781,123.8239974975586,-9999.0,null,null,null,true
HAZW4,NORTH FORK POWDER RVR NR HAZLETO WY US        USGS,HADS2,44.02777862548828,-107.08027648925781,2493.300048828125,-9999.0,null,null,null,true
HEEA4,MISSISSIPPI RIVER AT HELENA      AR US  USARMY-COE,HADS2,34.52027893066406,-90.59082794189453,59.400001525878906,-9999.0,null,null,null,true
EDTF1,EDDY TOWER                       FL US,RAWS,30.541900634765625,-82.34329986572266,39.900001525878906,-9999.0,null,null,null,true
AT938,EA1YO Torrellavega                   ES,APRSWXNET,43.33919906616211,-4.050300121307373,70.0,-9999.0,null,null,null,true
AS607,AC7SG Lake Goodwin                WA US,APRSWXNET,48.164920806884766,-122.26824188232422,115.0,-9999.0,null,null,null,true
AT937,N4LEC Douglasville                GA US,APRSWXNET,33.69245147705078,-84.70722961425781,306.0,-9999.0,null,null,null,true
AT936,KE7QYU-13 La Grande               OR US,APRSWXNET,45.3253288269043,-118.09916687011719,852.0,-9999.0,null,null,null,true
AS605,K9JVA Cincinnati                  OH US,APRSWXNET,39.19449996948242,-84.36582946777344,250.0,-9999.0,null,null,null,true
AT935,VE3HMS South River                ON CA,APRSWXNET,45.83958053588867,-79.38906860351562,365.0,-9999.0,null,null,null,true
BHQIN,Quinsam R. at Argonaut Brg       BC CN,utmesnet,49.93000030517578,-125.5093994140625,280.1000061035156,-9999.0,null,null,null,true
AT939,VR2VAV-3 Guangdong                   CN,APRSWXNET,22.951499938964844,113.66429901123047,2.5,-9999.0,null,null,null,true
AS609,K3DAD-1 Sipesville                PA US,APRSWXNET,40.11532974243164,-79.09667205810547,600.5,-9999.0,null,null,null,true
PIAI2,ILLINOIS RIVER  AT PEORIA (BOAT  IL US  USARMY-COE,HADS2,40.70389175415039,-89.56639099121094,140.1999969482422,-9999.0,null,null,null,true
AT930,WA8ULG-2 Largo                    FL US,APRSWXNET,27.86992073059082,-82.77020263671875,10.699999809265137,-9999.0,null,null,null,true
AT934,EA1AHY Torrelavega                   ES,APRSWXNET,43.35300064086914,-4.044169902801514,28.0,-9999.0,null,null,null,true
AS602,WL7CLI Des Moines                 IA US,APRSWXNET,41.628910064697266,-93.53443145751953,280.0,-9999.0,null,null,null,true
AT933,WB7TUJ Mesa                       AZ US,APRSWXNET,33.388301849365234,-111.7938003540039,375.1000061035156,-9999.0,null,null,null,true
AT932,KG6UWN La Honda                     CA,APRSWXNET,37.320098876953125,-122.26329803466797,246.0,-9999.0,null,null,null,true
FADT2,MCFADDIN                         TX US,RAWS,29.707199096679688,-94.12110137939453,1.5,-9999.0,null,null,null,true
MTTC1,MINARETS                         CA US,RAWS,37.40719985961914,-119.34559631347656,1627.5999755859375,-9999.0,null,null,null,true
ILTP1,WEST BRANCH SUSQUEHANNA RVR AT W PA US        USGS,HADS2,41.01860809326172,-76.86528015136719,134.10000610351562,-9999.0,null,null,null,true
MKZO3,MCKENZIE                         OR US SNOTEL,utmesnet,44.209999084472656,-121.87000274658203,1463.0,-9999.0,null,null,null,true
LOKC1,FRAZIER PARK VENTURA                   CA,,34.733299255371094,-119.10389709472656,1574.6650390625,-9999.0,null,null,null,true
BRND1,Brandywine Shl,nosports,38.98699951171875,-75.11299896240234,0.0,-9999.0,null,null,null,true
SDALP,Alpine                           CA US SGXWFO,utmesnet,32.83599853515625,-116.7770004272461,518.2000122070312,-9999.0,null,null,null,true
SDAM8,SODA SPRINGS                     MT US,RAWS,45.72890090942383,-108.39669799804688,1225.300048828125,-9999.0,null,null,null,true
ADKA2,Adak Island, AK,NOS-NWLON,51.862998962402344,-176.6320037841797,0.0,-9999.0,null,null,null,true
KPTN6,Kings Point, NY,nosports,40.810001373291016,-73.76499938964844,0.0,-9999.0,null,null,null,true
POTG1,POTATO CK AT COUNTY LINE ROAD    GA US        USGS,HADS2,33.18722152709961,-84.22943878173828,231.60000610351562,-9999.0,null,null,null,true
MRNC1,SOUTH FORK EEL RIVER NEAR MIRAND CA US        USGS,HADS2,40.18193817138672,-123.7750015258789,80.19999694824219,-9999.0,null,null,null,true
UDWC1,UNDERWOOD                        CA US,RAWS,40.72169876098633,-123.49639892578125,780.2999877929688,-9999.0,null,null,null,true
BLB,BLACK BUTTE                      CA US,utmesnet,39.80799865722656,-122.3290023803711,129.8000030517578,-9999.0,null,null,null,true
MBG1,Mobridge, SD,gpsmet,45.54199981689453,-100.40599822998047,512.7507934570312,-9999.0,null,null,null,true
BLK,Blackfoot (MVMS),arlfrd,43.18986511230469,-112.33329772949219,1377.699951171875,-9999.0,null,null,null,true
BNASD,Barona                           CA US,utmesnet,32.93497085571289,-116.8758773803711,402.29998779296875,-9999.0,null,null,null,true
BRNA2,MF BRADLEY R BL NF BRADLEY R NR HOMER  USGS,HADS,59.7983283996582,-150.8633270263672,195.1060028076172,-9999.0,null,null,null,true
PMNA2,POORMAN                          AK US,RAWS,64.1050033569336,-155.5583038330078,285.0,-9999.0,null,null,null,true
BLU,Blue Dome,arlfrd,44.07489776611328,-112.84207916259766,1731.300048828125,-9999.0,null,null,null,true
AT903,KG6YLJ-2 Clovis City              CA US,APRSWXNET,36.84366989135742,-119.69532775878906,113.4000015258789,-9999.0,null,null,null,true
AT902,K3TXT-1 Edgewater                 MD US,APRSWXNET,38.948001861572266,-76.5583267211914,21.0,-9999.0,null,null,null,true
AT909,N3DMS Kannapolis                  NC US,APRSWXNET,35.520328521728516,-80.66950225830078,257.29998779296875,-9999.0,null,null,null,true
AT908,N4RDG Clarkson                    KY US,APRSWXNET,37.511661529541016,-86.1997299194336,218.5,-9999.0,null,null,null,true
AT907,WX7FGZ-3 Agassiz Peak             AZ US,APRSWXNET,35.32582092285156,-111.68559265136719,3513.0,-9999.0,null,null,null,true
MDDW4,MIDDLE POWDER                    WY US SNOTEL,utmesnet,43.630001068115234,-107.18000030517578,2365.300048828125,-9999.0,null,null,null,true
AT901,WD0AOP Davey                      NE US,APRSWXNET,41.002830505371094,-96.67433166503906,383.0,-9999.0,null,null,null,true
SDAOK,Angelus Oaks                     CA US SGXWFO,utmesnet,34.143150329589844,-116.9823989868164,1748.9000244140625,-9999.0,null,null,null,true
NWWH1,Nawiliwili, HI,NOS-NWLON,21.952999114990234,-159.35499572753906,0.0,-9999.0,null,null,null,true
QADW4,QUADRANT                         WY US,RAWS,44.9275016784668,-110.99030303955078,2407.89990234375,-9999.0,null,null,null,true
LAAW3,LAONA                            WI US,RAWS,45.555599212646484,-88.68000030517578,481.6000061035156,-9999.0,null,null,null,true
TATA3,TAT MOMOLIKOT DAM NEAR CASA GRAN AZ US  USARMY-COE,HADS2,32.65055847167969,-111.92778015136719,457.20001220703125,-9999.0,null,null,null,true
SDANW,Arrowhead Northwest              CA US SGXWFO,utmesnet,34.26499938964844,-117.2249984741211,1661.199951171875,-9999.0,null,null,null,true
POTI1,POTLATCH                         ID US,RAWS,46.9296989440918,-116.90889739990234,762.0,-9999.0,null,null,null,true
JCTNV,CARSON CITY                      NV US NV DOT,utmesnet,39.119361877441406,-119.77488708496094,1449.5999755859375,-9999.0,null,null,null,true
H300A,Hanford 300 Area                 WA US HMMN,utmesnet,46.36399841308594,-119.28600311279297,118.9000015258789,-9999.0,null,null,null,true
MBHP,Big Hole Pass CTY-278 MP 32      MT US MT DOT,utmesnet,45.31544876098633,-113.30973815917969,2255.5,-9999.0,null,null,null,true
OMTC1,OAK MOUNTAIN                     CA US,RAWS,41.00640106201172,-121.9832992553711,813.7999877929688,-9999.0,null,null,null,true
ZHN1,Honolulu WAAS, HI,gpsmet,21.312999725341797,-157.92100524902344,8.257499694824219,-9999.0,null,null,null,true
TXAB,Abilene, TX,gpsmet,32.503299713134766,-99.75700378417969,516.5671997070312,-9999.0,null,null,null,true
RYDM4,RUDYARD                          MI US,RAWS,46.24079895019531,-84.51110076904297,213.39999389648438,-9999.0,null,null,null,true
TRDK1,STATE LINE                       KS US,RAWS,38.2400016784668,-94.66999816894531,243.8000030517578,-9999.0,null,null,null,true
PKTN,Pikton, OH,gpsmet,39.0452995300293,-83.02400207519531,176.6208038330078,-9999.0,null,null,null,true
FADO3,RAIN GAGE AT P.G.E. FARADAY POWE OR US        USGS,HADS2,45.26890182495117,-122.31670379638672,152.39999389648438,-9999.0,null,null,null,true
TXAN,San Antonio, TX,gpsmet,29.491199493408203,-98.5770034790039,288.9869079589844,-9999.0,null,null,null,true
TXAM,Amarillo, TX,gpsmet,35.15359878540039,-101.87799835205078,1123.9791259765625,-9999.0,null,null,null,true
WWAC1,WHITE WATER                      CA US,RAWS,33.94919967651367,-116.6572036743164,776.0,-9999.0,null,null,null,true
DRANV,Desert Rock, NV,surfrad,36.630001068115234,-116.0199966430664,1007.0,-9999.0,null,null,null,true
TXAU,Austin, TX,gpsmet,30.31170082092285,-97.75599670410156,218.44749450683594,-9999.0,null,null,null,true
NWWN4,BEACH CREEK AT NORTH WILDWOOD    NJ US         NWS,HADS2,39.00722122192383,-74.79833221435547,3.0,-9999.0,null,null,null,true
YELL,Yellowknife, NT,gpsmet,62.480899810791016,-114.48100280761719,206.78250122070312,-9999.0,null,null,null,true
BHQBY,Queens Bay elevation             BC CN,utmesnet,49.65439987182617,-116.92970275878906,545.0,-9999.0,null,null,null,true
TXCC,Corpus Christi, TX,gpsmet,27.740800857543945,-97.44200134277344,16.06279945373535,-9999.0,null,null,null,true
RMAM6,MARION                           MS US,RAWS,31.21139907836914,-89.92250061035156,115.80000305175781,-9999.0,null,null,null,true
VWGI1,VAN WYCK                         ID US SNOTEL,utmesnet,44.380001068115234,-116.33999633789062,1499.5999755859375,-9999.0,null,null,null,true
WGST2,1E Wall,WT-Meso,31.37472915649414,-100.287841796875,571.2999877929688,-9999.0,null,null,null,true
LCHA2,LITTLE CHENA RIDGE               AK US SNOTEL,utmesnet,65.12000274658203,-146.72999572753906,609.5999755859375,-9999.0,null,null,null,true
PTAO2,POTEAU RIVER NEAR POTEAU 1ENE    OK US  USARMY-COE,HADS2,35.05971908569336,-94.602783203125,124.69999694824219,-9999.0,null,null,null,true
TXCH,Childress, TX,gpsmet,34.459598541259766,-100.27799987792969,592.2255249023438,-9999.0,null,null,null,true
NEAW1,Neah Bay, WA,NOS-NWLON,48.36800003051758,-124.61699676513672,0.0,-9999.0,null,null,null,true
POTC1,POTRERO                          CA US,RAWS,32.60580062866211,-116.60890197753906,714.7999877929688,-9999.0,null,null,null,true
HRKM8,HARKNESS                         MT US,RAWS,44.46500015258789,-112.95189666748047,2560.300048828125,-9999.0,null,null,null,true
MTTL1,WHISKEY CHITTO CREEK AT MITTIE   LA US        USGS,HADS2,30.698610305786133,-92.89305877685547,14.0,-9999.0,null,null,null,true
DCWC1,DRY CREEK NEAR WHEATLAND 2NW     CA US        USGS,HADS2,39.026390075683594,-121.43611145019531,19.200000762939453,-9999.0,null,null,null,true
BTTC1,BUTTERCUP                        CA US,RAWS,32.73970031738281,-114.88420104980469,66.0999984741211,-9999.0,null,null,null,true
MGNG1,ICHAWAYNOCHAWAY CK AT HWY 37 NR  GA US        USGS,HADS2,31.526939392089844,-84.58277893066406,53.29999923706055,-9999.0,null,null,null,true
TXBM,Beaumont, TX,gpsmet,30.161699295043945,-94.18000030517578,15.643699645996094,-9999.0,null,null,null,true
JCTT2,North Llano River near Junction,LCRA_quart,30.517410278320312,-99.8061752319336,524.7310180664062,-9999.0,null,null,null,true
NPAV2,N PIEDMONT AREC                  VA US SCAN,utmesnet,38.22999954223633,-78.12000274658203,158.5,-9999.0,null,null,null,true
TXBU,Burnet, TX,gpsmet,30.750499725341797,-98.18399810791016,462.7168884277344,-9999.0,null,null,null,true
BRC,BRIGHTON CREST                   UT US AVALANCHE,utmesnet,40.587249755859375,-111.57676696777344,2895.60009765625,-9999.0,null,null,null,true
KKEA2,KAKE                             AK US,RAWS,56.973899841308594,-133.66000366210938,121.9000015258789,-9999.0,null,null,null,true
TXBS,Bastrop, TX,gpsmet,30.112899780273438,-97.29100036621094,166.26060485839844,-9999.0,null,null,null,true
TXBY,Bryan, TX,gpsmet,30.685800552368164,-96.37100219726562,114.37920379638672,-9999.0,null,null,null,true
MFKC2,MIDDLE FORK CAMP                 CO US SNOTEL,utmesnet,39.79999923706055,-106.02999877929688,2743.199951171875,-9999.0,null,null,null,true
ZHU1,Houston, TX,gpsmet,29.96190071105957,-95.33100128173828,39.055999755859375,-9999.0,null,null,null,true
LPNM4,Alpena, MI,NOS-NWLON,45.06330108642578,-83.42829895019531,179.0,-9999.0,null,null,null,true
MSQO1,MOSQUITO CK LAKE TAILWATER NEAR  OH US  USARMY-COE,HADS2,41.299720764160156,-80.75861358642578,277.3999938964844,-9999.0,null,null,null,true
KWHH1,Kawaihae, HI,NOS-NWLON,20.040000915527344,-155.83200073242188,0.0,-9999.0,null,null,null,true
TXEL,El Paso, TX,gpsmet,31.691499710083008,-106.27200317382812,1146.3426513671875,-9999.0,null,null,null,true
MBOW,Bowmans MT-200 MP 110.4          MT US MT DOT,utmesnet,47.292198181152344,-112.1518325805664,1310.9000244140625,-9999.0,null,null,null,true
BZDP4,BARRIO BEATRIZ RAIN GAUGE NEAR C PR US        USGS,HADS2,18.183330535888672,-66.08943939208984,405.1000061035156,-9999.0,null,null,null,true
MBOU,Boulder Hill I-15 MP 170.9       MT US MT DOT,utmesnet,46.323299407958984,-112.06890869140625,1905.0,-9999.0,null,null,null,true
TXDE,Denton, TX,gpsmet,33.21049880981445,-97.16300201416016,205.4882049560547,-9999.0,null,null,null,true
GDHP1,GARDEN HOLLOW                    PA US,RAWS,41.02560043334961,-77.16719818115234,502.8999938964844,-9999.0,null,null,null,true
TXDA,Dallas, TX,gpsmet,32.79999923706055,-96.6729965209961,186.75369262695312,-9999.0,null,null,null,true
TFAUN,Fauntleroy                       WA US WA DOT,utmesnet,47.527000427246094,-122.38999938964844,4.599999904632568,-9999.0,null,null,null,true
SUAN,Suantou, TW,gpsmet,23.47760009765625,120.30000305175781,11.313599586486816,-9999.0,null,null,null,true
MSQN2,MESQUITE                         NV US LAS VEGAS,utmesnet,36.84000015258789,-114.05999755859375,599.7999877929688,-9999.0,null,null,null,true
KPTV2,Kiptopeke, VA,nosports,37.16699981689453,-75.98799896240234,0.0,-9999.0,null,null,null,true
MC01,Grand Junction, CO,gpsmet,39.09120178222656,-108.52799987792969,1454.1717529296875,-9999.0,null,null,null,true
TXDR,Del Rio, TX,gpsmet,29.36440086364746,-100.9000015258789,302.92718505859375,-9999.0,null,null,null,true
TUNC1,TUNNEL NEAR CATAGO 15W           CA US,HADS2,36.36000061035156,-118.288330078125,2743.199951171875,-9999.0,null,null,null,true
QBHA3,BLACK HILLS                      AZ US,RAWS,33.08190155029297,-109.95110321044922,1021.7000122070312,-9999.0,null,null,null,true
BFJU1,BUFFALO JUMP                     UT US SCAN,utmesnet,41.34000015258789,-111.19000244140625,2037.9000244140625,-9999.0,null,null,null,true
MDEA2,MEADE RIVER NEAR ATKASUK 1N            USGS,HADS,70.48889923095703,-157.41110229492188,15.079999923706055,-9999.0,null,null,null,true
HDBI3,SALT CREEK NEAR HARRODSBURG 2SE  IN US  USARMY-COE,HADS2,39.00444030761719,-86.50861358642578,198.10000610351562,-9999.0,null,null,null,true
as890,LW4DBE Beraztegui                    AR,APRSWXNET,-34.744171142578125,-58.20610809326172,24.0,-9999.0,null,null,null,true
RSTM2,NEPP Site at Reisterstown        MD US,HADS2,39.500099182128906,-76.8375015258789,224.60000610351562,-9999.0,null,null,null,true
WRTA2,Whittier Access Road @ Tunnel MP 1.35,akdotroad,60.79016876220703,-148.81500244140625,51.0,-9999.0,null,null,null,true
GCEN8,JAMES RIVER NEAR GRACE CITY 3W   ND US  USARMY-COE,HADS2,47.55556106567383,-98.86250305175781,445.0,-9999.0,null,null,null,true
SUCH,Heping, TW,gpsmet,24.291099548339844,120.90799713134766,544.739990234375,-9999.0,null,null,null,true
LOKI2,ILLINOIS RIVER AT LOCKPORT LOCK & DAM  USARMY-COE,HADS,41.569698333740234,-88.07830047607422,161.40899658203125,-9999.0,null,null,null,true
ENPU1,ENTERPRISE                       UT US SCAN,utmesnet,37.633331298828125,-113.63333129882812,1599.9000244140625,-9999.0,null,null,null,true
TXGA,Galveston, TX,gpsmet,29.327899932861328,-94.77300262451172,17.274200439453125,-9999.0,null,null,null,true
PMNK1,MARAIS DES CYGNES RIVER NEAR POM KS US  USARMY-COE,HADS2,38.584171295166016,-95.45443725585938,271.29998779296875,-9999.0,null,null,null,true
GRAR,Grand Rapids, MI,gpsmet,42.988800048828125,-85.67400360107422,189.54620361328125,-9999.0,null,null,null,true
OCWO3,OCHOCO RANGER STATION NEAR PRINE OR US        USBR,HADS2,44.396671295166016,-120.42666625976562,1211.5999755859375,-9999.0,null,null,null,true
D7281,DW7281 Toowoomba                     AU,APRSWXNET,-27.582000732421875,151.9271697998047,680.0,-9999.0,null,null,null,true
D7282,DW7282 Cambrils                      ES,APRSWXNET,41.06949996948242,1.0513299703598022,26.0,-9999.0,null,null,null,true
D7285,DW7285 Edwardsville               IL US,APRSWXNET,38.80332946777344,-89.93367004394531,161.0,-9999.0,null,null,null,true
D7286,DW7286 Stenloese                     DK,APRSWXNET,55.771671295166016,12.204669952392578,18.0,-9999.0,null,null,null,true
D7287,DW7287 Spencer                    WV US,APRSWXNET,38.82183074951172,-81.37816619873047,290.0,-9999.0,null,null,null,true
DLPV2,DUNLAP CREEK NEAR COVINGTON 3W   VA US  USARMY-COE,HADS2,37.80278015136719,-80.0472183227539,394.70001220703125,-9999.0,null,null,null,true
TWTC2,TWIN LAKE TUNNELL NEAR BALLTOWN  CO US       CODWR,HADS2,39.081939697265625,-106.54000091552734,3191.300048828125,-9999.0,null,null,null,true
FDMP1,FREEDOM 1E                       PA US  USARMY-COE,HADS2,40.71916961669922,-80.14389038085938,298.70001220703125,-9999.0,null,null,null,true
D7280,DW7280 Huntington                 WV US,APRSWXNET,38.41986846923828,-82.30812072753906,188.0,-9999.0,null,null,null,true
ENQ51,Amsterdam  NL,GLOBE_ATM,52.38330078125,4.933300018310547,-1.0,-9999.0,null,null,null,true
GRDR,Burkesville 3 W                  KY US,KYMN,36.80221176147461,-85.4310073852539,167.94479370117188,-9999.0,null,null,null,true
D7279,DW7279 Playa La Barqueta             PA,APRSWXNET,8.304169654846191,-82.5780029296875,3.0,-9999.0,null,null,null,true
FQUB1,Najera, LA RIOJA LO ES,GLOBE_ATM,42.419700622558594,-2.7200000286102295,511.29998779296875,-9999.0,null,null,null,true
CTMSD,Corte Madera                     CA US,utmesnet,32.782901763916016,-116.55000305175781,1220.4000244140625,-9999.0,null,null,null,true
TXJC,Johnson City, TX,gpsmet,30.26650047302246,-98.39700317382812,371.27850341796875,-9999.0,null,null,null,true
BHPYN,Pine Pass                        BC CN,utmesnet,55.35309982299805,-122.63719940185547,1399.9000244140625,-9999.0,null,null,null,true
LOKN1,OAK CREEK AT AIRPARK ROAD NEAR L NE US        USGS,HADS2,40.855560302734375,-96.7794418334961,353.6000061035156,-9999.0,null,null,null,true
BGMW1,BUNCHGRASS MDW                   WA US SNOTEL,utmesnet,48.689998626708984,-117.18000030517578,1524.0,-9999.0,null,null,null,true
D7294,DW7294 Tallahassee                FL US,APRSWXNET,30.655500411987305,-84.20783233642578,80.0,-9999.0,null,null,null,true
HUEY,Burlington 4 S                   KY US,KYMN,38.967010498046875,-84.72164916992188,273.1007995605469,-9999.0,null,null,null,true
D7296,DW7296 Yerington                  NV US,APRSWXNET,39.02574920654297,-119.05030059814453,1349.699951171875,-9999.0,null,null,null,true
D7297,DW7297 Parowan                    UT US,APRSWXNET,37.854671478271484,-112.82032775878906,1828.800048828125,-9999.0,null,null,null,true
D7299,DW7299 Petaluma                   CA US,APRSWXNET,38.24800109863281,-122.72467041015625,128.0,-9999.0,null,null,null,true
DHDI1,DOLLARHIDE SUMMIT                ID US SNOTEL,utmesnet,43.599998474121094,-114.66999816894531,2566.39990234375,-9999.0,null,null,null,true
MITW1,Mt. Mitchell                     WA US PDXWFO,utmesnet,46.03329849243164,-122.16670227050781,1097.300048828125,-9999.0,null,null,null,true
RIWI1,RIRIE WEATHER AT RIRIE           ID US        USBR,HADS2,43.58082962036133,-111.741943359375,1560.300048828125,-9999.0,null,null,null,true
MBRM,Bearmouth I-90 MP 145.8          MT US MT DOT,utmesnet,46.71854019165039,-113.29534149169922,1189.0,-9999.0,null,null,null,true
DGAG1,CHESTATEE RIVER AT GA 52 NEAR DA GA US        USGS,HADS2,34.52806091308594,-83.9397201538086,344.1000061035156,-9999.0,null,null,null,true
PTAW1,Port Angeles, WA,NOS-NWLON,48.125,-123.44000244140625,0.0,-9999.0,null,null,null,true
SDAPL,Apple Valley                     CA US SGXWFO,utmesnet,34.5359992980957,-117.27799987792969,841.9000244140625,-9999.0,null,null,null,true
SDAPN,Alpine 3W                        CA US SGXWFO,utmesnet,32.831939697265625,-116.8133316040039,387.1000061035156,-9999.0,null,null,null,true
D8590,DW8590 Norwich                    NY US,APRSWXNET,42.546669006347656,-75.54550170898438,327.70001220703125,-9999.0,null,null,null,true
D7260,DW7260 Cuorgne                       IT,APRSWXNET,45.42367172241211,7.595829963684082,470.0,-9999.0,null,null,null,true
ANGS2,CHEYENNE RVR BLO ANGOSTURA RES   SD US        USBR,HADS2,43.345001220703125,-103.4366683959961,971.4000244140625,-9999.0,null,null,null,true
D8591,DW8591 Berlin                     CT US,APRSWXNET,41.622371673583984,-72.78260803222656,66.0,-9999.0,null,null,null,true
D7261,DW7261 Whittier                   CA US,APRSWXNET,33.947059631347656,-118.0428237915039,43.0,-9999.0,null,null,null,true
D8593,DW8593 Schaerding                    AT,APRSWXNET,48.48133087158203,13.572669982910156,498.0,-9999.0,null,null,null,true
D7262,DW7262 La Rochelle                   FR,APRSWXNET,45.94850158691406,-1.368499994277954,2.0,-9999.0,null,null,null,true
D7263,DW7263 Castleford                    UK,APRSWXNET,53.7486686706543,-1.372499942779541,17.0,-9999.0,null,null,null,true
KAHNV,Kahle Drive,nvdot,38.97018814086914,-119.93492126464844,1922.4000244140625,-9999.0,null,null,null,true
MGNN5,MOGOLLON                         NM US,RAWS,33.39059829711914,-108.80670166015625,2393.89990234375,-9999.0,null,null,null,true
D8595,DW8595 Windham                    NH US,APRSWXNET,42.82332992553711,-71.3219985961914,300.0,-9999.0,null,null,null,true
D8597,DW8597 Tacoma                     WA US,APRSWXNET,47.216670989990234,-122.41667175292969,98.0,-9999.0,null,null,null,true
UTDOG,Dog Valley                       UT US UTAH DOT,utmesnet,38.63636016845703,-112.609130859375,1883.699951171875,-9999.0,null,null,null,true
MBUL,Bull Mountain US-87 MP 33.3      MT US MT DOT,utmesnet,46.247440338134766,-108.46121215820312,1188.0999755859375,-9999.0,null,null,null,true
VVDN2,LAS VEGAS WASH AT VEGAS VALLEY D NV US        USGS,HADS2,36.136940002441406,-115.03778076171875,515.0999755859375,-9999.0,null,null,null,true
MRNN1,MISSOURI RIVER AT NIOBRARA       NE US        USGS,HADS2,42.76166915893555,-98.02777862548828,365.79998779296875,-9999.0,null,null,null,true
LDKM8,MISSOURI RIVER NEAR LANDUSKY 20S MT US  USARMY-COE,HADS2,47.630828857421875,-108.68694305419922,682.7999877929688,-9999.0,null,null,null,true
C5283,CW5283 Foothill Ranch             CA US,APRSWXNET,33.685001373291016,-117.65583038330078,295.6000061035156,-9999.0,null,null,null,true
NINM8,NINE MILE                        MT US,RAWS,47.0713996887207,-114.40139770507812,996.7000122070312,-9999.0,null,null,null,true
C5287,CW5287 Villalba                   PR US,APRSWXNET,18.108999252319336,-66.50499725341797,13.699999809265137,-9999.0,null,null,null,true
C5286,CW5286 Maurertown                 VA US,APRSWXNET,38.93593978881836,-78.516357421875,313.0,-9999.0,null,null,null,true
D8587,DW8587 Cavaria con Premezzo          IT,APRSWXNET,45.6888313293457,8.809000015258789,259.0,-9999.0,null,null,null,true
D7257,DW7257 Saludecio                     IT,APRSWXNET,43.88383102416992,12.65132999420166,250.0,-9999.0,null,null,null,true
TXLF,Lufkin, TX,gpsmet,31.356399536132812,-94.71800231933594,104.92140197753906,-9999.0,null,null,null,true
D8589,DW8589 Ilava                         SK,APRSWXNET,48.954010009765625,18.43408966064453,622.0,-9999.0,null,null,null,true
D7259,DW7259 Rancho Cucamonga           CA US,APRSWXNET,34.1510009765625,-117.63333129882812,597.4000244140625,-9999.0,null,null,null,true
D7270,DW7270 Red Deer                      CA,APRSWXNET,52.26782989501953,-113.78717041015625,912.0,-9999.0,null,null,null,true
D7271,DW7271 Weeki Wachee               FL US,APRSWXNET,28.502220153808594,-82.60835266113281,3.0,-9999.0,null,null,null,true
AMDO1,AMSTERDAM                        OH US  USARMY-COE,HADS2,40.47528076171875,-80.9244384765625,304.79998779296875,-9999.0,null,null,null,true
DRAC2,DRAGON ROAD                      CO US,RAWS,39.915000915527344,-108.88780212402344,1920.199951171875,-9999.0,null,null,null,true
GTXF1,NERRS METEOROLOGICAL SITE AT MATANZAS,nerresmet,29.670799255371094,-81.22419738769531,0.3089999854564667,-9999.0,null,null,null,true
D7277,DW7277 Aljaraque                     ES,APRSWXNET,37.287750244140625,-7.0505900382995605,38.0,-9999.0,null,null,null,true
STQC1,SPRINGVILLE TULE POWERPLANT      CA US         PGE,HADS2,36.16305923461914,-118.70722198486328,744.9000244140625,-9999.0,null,null,null,true
FBGG1,FORT BENNING                     GA US,RAWS,32.39670181274414,-84.87000274658203,142.3000030517578,-9999.0,null,null,null,true
C5292,CW5292 Miller Place               NY US,APRSWXNET,40.96004867553711,-72.9964599609375,40.0,-9999.0,null,null,null,true
C5296,CW5296 Dorado                     PR US,APRSWXNET,18.270000457763672,-66.16000366210938,12.199999809265137,-9999.0,null,null,null,true
C5298,CW5298 Napavine                   WA US,APRSWXNET,46.584808349609375,-122.90445709228516,133.0,-9999.0,null,null,null,true
D8598,DW8598 Rosslare Strand               IE,APRSWXNET,52.263671875,-6.3803300857543945,30.0,-9999.0,null,null,null,true
D8599,DW8599 Deansboro                  NY US,APRSWXNET,43.00849914550781,-75.44082641601562,340.0,-9999.0,null,null,null,true
D7269,DW7269 Tucson                     AZ US,APRSWXNET,32.35282897949219,-110.95883178710938,860.0,-9999.0,null,null,null,true
AMDN8,SAND CREEK                       ND US,RAWS,46.54610061645508,-103.51860046386719,837.5999755859375,-9999.0,null,null,null,true
SDARN,Arrowhead North                  CA US SGXWFO,utmesnet,34.270999908447266,-117.18699645996094,1578.9000244140625,-9999.0,null,null,null,true
D8570,DW8570 Sherman                    MS MS,APRSWXNET,34.36433029174805,-88.84200286865234,113.0,-9999.0,null,null,null,true
D8571,DW8571 Pontotoc                   MS MS,APRSWXNET,34.27682876586914,-89.02017211914062,116.0,-9999.0,null,null,null,true
D8572,DW8572 Woodburn                   IN US,APRSWXNET,41.13600158691406,-84.86100006103516,216.0,-9999.0,null,null,null,true
D8573,DW8573 Atlanta                    IN US,APRSWXNET,40.223331451416016,-86.10916900634766,259.0,-9999.0,null,null,null,true
D8574,DW8574 Payne                      OH US,APRSWXNET,41.080501556396484,-84.72782897949219,229.0,-9999.0,null,null,null,true
AR273,N1JJX Southington                 CT US,APRSWXNET,41.61616897583008,-72.92217254638672,71.0,-9999.0,null,null,null,true
D7244,DW7244 Eastman                    GA US,APRSWXNET,32.20280838012695,-83.16580963134766,95.0,-9999.0,null,null,null,true
TXNA,Navarro, TX,gpsmet,32.04180145263672,-96.53900146484375,130.99879455566406,-9999.0,null,null,null,true
GRHM,Henderson 5 E                    KY US,KYMN,37.82107162475586,-87.50874328613281,156.36239624023438,-9999.0,null,null,null,true
C5260,CW5260 Elysburg                   PA US,APRSWXNET,40.89036178588867,-76.5169677734375,301.79998779296875,-9999.0,null,null,null,true
TUNIN,Uniontown                        WA US WA DOT,utmesnet,46.5172004699707,-117.08110046386719,815.0,-9999.0,null,null,null,true
GRRA4,LITTLE RED RVR AT GREERS FERRY D AR US  USARMY-COE,HADS2,35.52082824707031,-91.99500274658203,160.60000610351562,-9999.0,null,null,null,true
C6596,CW6596 Brooklin School            ME US,APRSWXNET,44.269771575927734,-68.5707015991211,46.0,-9999.0,null,null,null,true
C5264,CW5264 Elgin                         UK,APRSWXNET,57.64690017700195,-3.328429937362671,27.0,-9999.0,null,null,null,true
D7234,DW7234 Heidelberg                    DE,APRSWXNET,49.403831481933594,8.72716999053955,565.0,-9999.0,null,null,null,true
AS598,W0PE-4 Running Springs            CA US,APRSWXNET,34.21567153930664,-117.12149810791016,1899.0,-9999.0,null,null,null,true
D8565,DW8565 Ship Bottom                NJ US,APRSWXNET,39.64366912841797,-74.17916870117188,5.0,-9999.0,null,null,null,true
AR268,GM7PBB Stonoway                      UK,APRSWXNET,58.50128173828125,-6.261209964752197,20.0,-9999.0,null,null,null,true
D7235,DW7235 Newburgh                   IN US,APRSWXNET,37.94783020019531,-87.39450073242188,444.0,-9999.0,null,null,null,true
AR266,WW7CH Eatonville                  WA US,APRSWXNET,46.86600112915039,-122.27266693115234,259.0,-9999.0,null,null,null,true
D8568,DW8568 San Francisco              CA US,APRSWXNET,37.742828369140625,-122.46282958984375,137.0,-9999.0,null,null,null,true
D7237,DW7237 Pendleton                  OR US,APRSWXNET,45.673828125,-118.76950073242188,349.0,-9999.0,null,null,null,true
AS597,K0JGS Kimberling City             MO US,APRSWXNET,36.64617156982422,-93.43002319335938,385.6000061035156,-9999.0,null,null,null,true
D8569,DW8569 Eltingville                NY US,APRSWXNET,40.55379867553711,-74.16139221191406,22.899999618530273,-9999.0,null,null,null,true
ADJP4,LAGO GARZAS NEAR ADJUNTAS 2SW    PR US        USGS,HADS2,18.13888931274414,-66.74138641357422,736.0999755859375,-9999.0,null,null,null,true
AS590,WB3IGR Easton                     MD US,APRSWXNET,38.77217102050781,-76.04550170898438,16.0,-9999.0,null,null,null,true
RCEC1,ROCK CREEK                       CA US,RAWS,37.55139923095703,-118.66719818115234,2145.800048828125,-9999.0,null,null,null,true
AS591,KS4KP Keystone Heights            FL US,APRSWXNET,29.85038948059082,-81.8949966430664,40.20000076293945,-9999.0,null,null,null,true
D8580,DW8580 North Beach                NJ US,APRSWXNET,39.67966842651367,-74.15032958984375,10.0,-9999.0,null,null,null,true
BBY6,Bodega Bay, CA,gpsmet,38.31919860839844,-123.072998046875,14.59000015258789,-9999.0,null,null,null,true
D7251,DW7251 Hampton                       AU,APRSWXNET,-37.93619155883789,144.99777221679688,10.0,-9999.0,null,null,null,true
D8582,DW8582 San Francisco              CA US,APRSWXNET,37.778499603271484,-122.40799713134766,5.0,-9999.0,null,null,null,true
AR264,K0JDN Phoenix                     AZ US,APRSWXNET,33.721168518066406,-111.99182891845703,526.0,-9999.0,null,null,null,true
BHPUL,Pulpit Lk                        BC CN,utmesnet,57.548301696777344,-126.7489013671875,1310.9000244140625,-9999.0,null,null,null,true
D8584,DW8584 Bryan                      TX US,APRSWXNET,30.636999130249023,-96.35382843017578,100.0,-9999.0,null,null,null,true
D7253,DW7253 Plymouth                   IN US,APRSWXNET,41.34299850463867,-86.30899810791016,243.8000030517578,-9999.0,null,null,null,true
D7254,DW7254 Hailsham                      UK,APRSWXNET,50.870670318603516,0.24866999685764313,34.0,-9999.0,null,null,null,true
D7255,DW7255 Lido di Noto                  IT,APRSWXNET,36.85116958618164,15.110329627990723,20.0,-9999.0,null,null,null,true
D8586,DW8586 Hollister                  CA US,APRSWXNET,36.820499420166016,-121.37650299072266,289.0,-9999.0,null,null,null,true
DMST2,Dimmitt 2NE,WT-Meso,34.567508697509766,-102.29319763183594,1181.4000244140625,-9999.0,null,null,null,true
TXLU,Lubbock, TX,gpsmet,33.535400390625,-101.84300231933594,980.8140258789062,-9999.0,null,null,null,true
TXLR,Laredo, TX,gpsmet,27.513900756835938,-99.447998046875,137.6676025390625,-9999.0,null,null,null,true
EBMM8,EAST BOULDER MINE                MT US SNOTEL,utmesnet,45.29999923706055,-110.0666732788086,1930.9000244140625,-9999.0,null,null,null,true
C5272,CW5272 Scotts Valley              CA US,APRSWXNET,37.088279724121094,-122.03473663330078,378.0,-9999.0,null,null,null,true
C5273,CW5273 Agoura Hills               CA US,APRSWXNET,34.12929916381836,-118.7632064819336,287.0,-9999.0,null,null,null,true
MBVR,Beaver Hill I-94 MP 234.8        MT US MT DOT,utmesnet,47.02198028564453,-104.33000183105469,853.0999755859375,-9999.0,null,null,null,true
AS587,K2SKR Santa Fe                    NM US,APRSWXNET,35.82099914550781,-105.91516876220703,2085.0,-9999.0,null,null,null,true
D7246,DW7246 Milano                        IT,APRSWXNET,45.466670989990234,8.916669845581055,140.0,-9999.0,null,null,null,true
D7247,DW7247 Grodno                        BY,APRSWXNET,53.64189910888672,23.902389526367188,154.0,-9999.0,null,null,null,true
D8578,DW8578 Lampasas                   TX US,APRSWXNET,31.076169967651367,-98.0498275756836,310.0,-9999.0,null,null,null,true
AS586,LCSD Bedford                      IN US,APRSWXNET,38.862831115722656,-86.48249816894531,209.0,-9999.0,null,null,null,true
D7248,DW7248 Hobart                     IN US,APRSWXNET,41.50870895385742,-87.24748229980469,193.0,-9999.0,null,null,null,true
AS589,N5OPT Russellville                AR US,APRSWXNET,35.271331787109375,-93.17317199707031,216.39999389648438,-9999.0,null,null,null,true
NINR1,NINIGRET                         RI US,RAWS,41.379398345947266,-71.5824966430664,5.800000190734863,-9999.0,null,null,null,true
AR293,DH3PAE-6 Bad Munstereifel            DE,APRSWXNET,50.541259765625,6.917300224304199,0.0,-9999.0,null,null,null,true
RRIM,Rimrock Reservoir                WA US YAKIMA,utmesnet,46.652801513671875,-121.125,877.7999877929688,-9999.0,null,null,null,true
AR297,VA3HRA Exeter                     ON CA,APRSWXNET,43.342830657958984,-81.48332977294922,270.0,-9999.0,null,null,null,true
D7220,DW7220 Vero Beach                 FL US,APRSWXNET,27.610000610351562,-80.39199829101562,8.0,-9999.0,null,null,null,true
D8553,DW8553 Rosenberg                  TX US,APRSWXNET,29.552499771118164,-95.80500030517578,32.0,-9999.0,null,null,null,true
D7222,DW7222 Canton                     CT US,APRSWXNET,41.8878288269043,-72.89250183105469,198.0,-9999.0,null,null,null,true
C6565,CW6565 Lewiston                   ID US,APRSWXNET,46.42082977294922,-117.02999877929688,237.6999969482422,-9999.0,null,null,null,true
C5234,CW5234 Buckingham                 PA US,APRSWXNET,40.32500076293945,-75.03399658203125,76.0,-9999.0,null,null,null,true
C6564,CW6564 Cottbus                       DE,APRSWXNET,51.752498626708984,14.294670104980469,70.0,-9999.0,null,null,null,true
BRMO3,BIG RED MOUNTAIN                 OR US SNOTEL,utmesnet,42.04999923706055,-122.8499984741211,1905.0,-9999.0,null,null,null,true
C6568,CW6568 Charleston                 OR US,APRSWXNET,43.31740188598633,-124.30687713623047,11.600000381469727,-9999.0,null,null,null,true
SUM5,Summerfield, TX,gpsmet,34.82509994506836,-102.51200103759766,1188.5059814453125,-9999.0,null,null,null,true
SHNN2,SHELDON                          NV US SNOTEL,utmesnet,41.900001525878906,-119.44999694824219,1786.0999755859375,-9999.0,null,null,null,true
BHPRS,Parsnip R. ab Misinchinka R.     BC CN,utmesnet,55.08000183105469,-122.9000015258789,700.0999755859375,-9999.0,null,null,null,true
FOGO,FOREST GROVE                     OR US AGRIMET,utmesnet,45.55305862426758,-123.08361053466797,54.900001525878906,-9999.0,null,null,null,true
ELDN,East London, ZA,gpsmet,-33.03810119628906,27.82900047302246,134.73500061035156,-9999.0,null,null,null,true
TXPA,Paris, TX,gpsmet,33.674198150634766,-95.55699920654297,172.12350463867188,-9999.0,null,null,null,true
D7213,DW7213 Richmond                   CA US,APRSWXNET,37.91366958618164,-122.35466766357422,50.0,-9999.0,null,null,null,true
D8544,DW8544 Lake Barrington            IL US,APRSWXNET,42.21733093261719,-88.1606674194336,235.0,-9999.0,null,null,null,true
D8545,DW8545 West Point                 CA US,APRSWXNET,38.399539947509766,-120.52763366699219,842.0,-9999.0,null,null,null,true
D7214,DW7214 Amity                      OR US,APRSWXNET,45.11592102050781,-123.14350128173828,149.0,-9999.0,null,null,null,true
GRRC1,GREENVILLE 1W                    CA US       CADWR,HADS2,40.13943862915039,-120.94110870361328,1085.0999755859375,-9999.0,null,null,null,true
AR287,BENRDG BensonRidge                NM US,APRSWXNET,32.8745002746582,-105.77433013916016,2995.0,-9999.0,null,null,null,true
CKST2,CLARKSVILLE                      TX US,RAWS,33.618900299072266,-95.16670227050781,146.3000030517578,-9999.0,null,null,null,true
D8547,DW8547 Sidney                     MT US,APRSWXNET,47.45766830444336,-104.34483337402344,604.0,-9999.0,null,null,null,true
CIMN5,CIMARRON                         NM US,RAWS,36.60609817504883,-105.12030029296875,2665.199951171875,-9999.0,null,null,null,true
D8548,DW8548 Rockingham                    AU,APRSWXNET,-32.283329010009766,115.71666717529297,4.0,-9999.0,null,null,null,true
D7219,DW7219 Malvern                    PA US,APRSWXNET,40.032169342041016,-75.5218276977539,180.0,-9999.0,null,null,null,true
D8560,DW8560 Harrisburg                 IL US,APRSWXNET,37.80133056640625,-88.53517150878906,110.0,-9999.0,null,null,null,true
D8561,DW8561 Middletown-Jerusalem Grade CA US,APRSWXNET,38.83032989501953,-122.53450012207031,562.7000122070312,-9999.0,null,null,null,true
AR283,VE7MKF-3 Surry                    BC CA,APRSWXNET,49.107540130615234,-122.74516296386719,11.0,-9999.0,null,null,null,true
D8563,DW8563 New Windsor                NY US,APRSWXNET,41.48883056640625,-74.02616882324219,150.0,-9999.0,null,null,null,true
D7232,DW7232 Owen Sound                    CA,APRSWXNET,44.57966995239258,-80.96967315673828,307.0,-9999.0,null,null,null,true
AR284,VE7MMG-1 Crystal Mt.              BC CA,APRSWXNET,49.882171630859375,-119.71016693115234,1111.0,-9999.0,null,null,null,true
C5244,CW5244 Bartlett                   TN US,APRSWXNET,35.21049880981445,-89.822998046875,94.5,-9999.0,null,null,null,true
C6575,CW6575 Danbury                    CT US,APRSWXNET,41.45130920410156,-73.47232055664062,224.0,-9999.0,null,null,null,true
C5246,CW5246 Wilton                     ME US,APRSWXNET,44.59798812866211,-70.1700210571289,156.0,-9999.0,null,null,null,true
C5249,CW5249 Blairstown                 NJ US,APRSWXNET,40.96133041381836,-74.97032928466797,204.6999969482422,-9999.0,null,null,null,true
TSHC1,ASH MOUNTAIN                     CA US,RAWS,36.49140167236328,-118.82530212402344,527.2999877929688,-9999.0,null,null,null,true
TATQ9,TATSHENSHINI RIVER NEAR DALTON POST AK WSCVAN,HADS,60.11832809448242,-137.08749389648438,608.1939697265625,-9999.0,null,null,null,true
EVGC2,EVERGREEN                        CO US         NWS,HADS2,39.6380615234375,-105.31500244140625,2129.0,-9999.0,null,null,null,true
C5250,CW5250 Millwood                   NY US,APRSWXNET,41.182498931884766,-73.81300354003906,147.8000030517578,-9999.0,null,null,null,true
ALAG1,ALAPAHA RVR AT US HIGHWAY 82 NEA GA US        USGS,HADS2,31.384170532226562,-83.19249725341797,63.400001525878906,-9999.0,null,null,null,true
D8554,DW8554 Glenville                  NC US,APRSWXNET,35.17797088623047,-83.12296295166016,1151.0,-9999.0,null,null,null,true
D8555,DW8555 Needville                  TX US,APRSWXNET,29.398330688476562,-95.83999633789062,27.0,-9999.0,null,null,null,true
D7225,DW7225 Erlangen                      DE,APRSWXNET,49.56159973144531,11.002050399780273,299.0,-9999.0,null,null,null,true
D8556,DW8556 Gainesville                FL US,APRSWXNET,29.670169830322266,-82.38999938964844,100.0,-9999.0,null,null,null,true
AR277,VE2GAT-2 St.Hyacinthe             QC CA,APRSWXNET,45.616798400878906,-72.95382690429688,25.0,-9999.0,null,null,null,true
D8559,DW8559 Crossville                 IL US,APRSWXNET,38.18783187866211,-88.0386734008789,151.0,-9999.0,null,null,null,true
TXOE,Odessa, TX,gpsmet,31.87350082397461,-102.31400299072266,880.3139038085938,-9999.0,null,null,null,true
D7229,DW7229 Hampstead                  NH US,APRSWXNET,42.8685417175293,-71.1408462524414,69.0,-9999.0,null,null,null,true
CFDC2,CHATFIELD DAM NEAR LITTLETON 5SS CO US  USARMY-COE,HADS2,39.55805969238281,-105.06360626220703,1676.4000244140625,-9999.0,null,null,null,true
AS561,WB8MZI Gassaway                   WV US,APRSWXNET,38.6619987487793,-80.74749755859375,269.0,-9999.0,null,null,null,true
AT891,KB9HLT Roselawn                   IN US,APRSWXNET,41.164180755615234,-87.29580688476562,203.0,-9999.0,null,null,null,true
D8530,DW8530 Mechanicville              NY US,APRSWXNET,42.90700149536133,-73.69332885742188,29.0,-9999.0,null,null,null,true
D8531,DW8531 Fenton                     MO US,APRSWXNET,38.53166961669922,-90.46566772460938,180.10000610351562,-9999.0,null,null,null,true
C5212,CW5212 Pocatello                  ID US,APRSWXNET,42.872581481933594,-112.33795166015625,1871.5,-9999.0,null,null,null,true
C7876,CW7876 Port Huron                 MI US,APRSWXNET,43.01155090332031,-82.42445373535156,183.0,-9999.0,null,null,null,true
C5214,CW5214 Youngstown                 OH US,APRSWXNET,41.09151077270508,-80.70305633544922,306.0,-9999.0,null,null,null,true
C7873,CW7873 Smyrna                     DE US,APRSWXNET,39.2495002746582,-75.59890747070312,6.0,-9999.0,null,null,null,true
C5218,CW5218 Olympia                    WA US,APRSWXNET,46.98167037963867,-122.85333251953125,62.5,-9999.0,null,null,null,true
D8529,DW8529 Flensburg                     DE,APRSWXNET,54.7216682434082,9.454170227050781,39.0,-9999.0,null,null,null,true
MFKU1,MINING FORK                      UT US SNOTEL,utmesnet,40.4900016784668,-112.61000061035156,2438.39990234375,-9999.0,null,null,null,true
PLKI4,BIG CREEK PARK NEAR POLK CITY 2N IA US  USARMY-COE,HADS2,41.79444122314453,-93.72917175292969,286.5,-9999.0,null,null,null,true
AR229,NM5I Jenks                        OK US,APRSWXNET,36.0099983215332,-95.91999816894531,220.0,-9999.0,null,null,null,true
OVNM8,OVANDO RAIN GUAGE                MT US        USGS,HADS2,47.019168853759766,-113.12889099121094,1252.4000244140625,-9999.0,null,null,null,true
C7882,CW7882 Hansville                  WA US,APRSWXNET,47.898860931396484,-122.57035827636719,55.0,-9999.0,null,null,null,true
D8521,DW8521 Nevada City                CA US,APRSWXNET,39.269500732421875,-121.100830078125,659.0,-9999.0,null,null,null,true
AT886,N0VTZ Sumner                      IA US,APRSWXNET,42.914669036865234,-92.10050201416016,349.0,-9999.0,null,null,null,true
NFEN5,Bandelier Nat Mon HCN            NM US,HADS2,35.824501037597656,-106.31780242919922,2212.199951171875,-9999.0,null,null,null,true
AT885,KD3TB Doylestown                  PA US,APRSWXNET,40.26679992675781,-75.12220001220703,68.80000305175781,-9999.0,null,null,null,true
ARST2,Abernathy 5NE,WT-Meso,33.87538146972656,-101.7572021484375,1015.9000244140625,-9999.0,null,null,null,true
AT884,W9LVT Morris                      IL US,APRSWXNET,41.354698181152344,-88.45050048828125,160.0,-9999.0,null,null,null,true
AT883,M0TTB Hertfordshire                  UK,APRSWXNET,51.68550109863281,-0.382999986410141,70.9000015258789,-9999.0,null,null,null,true
AS553,W7FXH Pagosa Springs              CO US,APRSWXNET,37.18611145019531,-106.97416687011719,2230.800048828125,-9999.0,null,null,null,true
D8524,DW8524 Gaylord                    MI US,APRSWXNET,45.00917053222656,-84.64700317382812,397.0,-9999.0,null,null,null,true
LABN7,INDIAN CK NEAR LABORATORY NEAR L NC US        USGS,HADS2,35.42055892944336,-81.2652816772461,224.3000030517578,-9999.0,null,null,null,true
PLKI1,PRIEST LAKE                      ID US,RAWS,48.57419967651367,-116.95780181884766,792.5,-9999.0,null,null,null,true
D8525,DW8525 Cheyenne Wells             CO US,APRSWXNET,38.820499420166016,-102.35166931152344,1306.0,-9999.0,null,null,null,true
AT889,KD7ITP-13 Bodie                   WA US,APRSWXNET,48.8745002746582,-118.96417236328125,1110.0,-9999.0,null,null,null,true
AR228,N0ERG Littleton                   CO US,APRSWXNET,39.625,-104.97949981689453,1658.0,-9999.0,null,null,null,true
D8526,DW8526 Pilot                      NC US,APRSWXNET,35.89482879638672,-78.22917175292969,93.30000305175781,-9999.0,null,null,null,true
AR225,KG6QHS Shingletown                CA US,APRSWXNET,40.47631072998047,-121.98841857910156,647.0,-9999.0,null,null,null,true
AS557,N0NBH Sierra Vista                AZ US,APRSWXNET,31.50227928161621,-110.2603988647461,1416.0,-9999.0,null,null,null,true
AR226,W4NWF-2 Pensacola                 FL US,APRSWXNET,30.513500213623047,-87.1760025024414,23.0,-9999.0,null,null,null,true
TXPR,Pharr, TX,gpsmet,26.208499908447266,-98.18900299072266,39.119300842285156,-9999.0,null,null,null,true
AT882,K0TRC-0 Erie                      CO US,APRSWXNET,40.037498474121094,-105.06749725341797,1561.699951171875,-9999.0,null,null,null,true
AR220,K7RMR Ellensburg                  WA US,APRSWXNET,46.99232864379883,-120.51399993896484,473.0,-9999.0,null,null,null,true
AS551,KA5YYD Houston                    TX US,APRSWXNET,29.78166961669922,-95.53166961669922,30.0,-9999.0,null,null,null,true
AT881,N2HMM-13 Glenwood                 NJ US,APRSWXNET,41.221500396728516,-74.48799896240234,139.8000030517578,-9999.0,null,null,null,true
MBZH,Bozeman Pass I-90 MP 321.8       MT US MT DOT,utmesnet,45.66682052612305,-110.80394744873047,1752.0,-9999.0,null,null,null,true
D8542,DW8542 Cooper                     ME US,APRSWXNET,44.95439910888672,-67.43855285644531,83.0,-9999.0,null,null,null,true
C5229,CW5229 Glenwood                   IL US,APRSWXNET,41.53746032714844,-87.58418273925781,189.10000610351562,-9999.0,null,null,null,true
C7888,CW7888 Murfreesboro               TN US,APRSWXNET,35.88785171508789,-86.50483703613281,185.0,-9999.0,null,null,null,true
C7890,CW7890 Parsons                    TN US,APRSWXNET,35.6496696472168,-88.12699890136719,152.39999389648438,-9999.0,null,null,null,true
NFEM8,N FK ELK CREEK                   MT US SNOTEL,utmesnet,46.869998931884766,-113.27999877929688,1905.0,-9999.0,null,null,null,true
C6561,CW6561 Chicago                    IL US,APRSWXNET,41.950748443603516,-87.82669830322266,193.5,-9999.0,null,null,null,true
C7891,CW7891 Ludlow                     VT US,APRSWXNET,43.39332962036133,-72.70449829101562,320.0,-9999.0,null,null,null,true
C7892,CW7892 Brush Prairie              WA US,APRSWXNET,45.70417022705078,-122.54550170898438,87.0,-9999.0,null,null,null,true
C6562,CW6562 Green Bay                  WI US,APRSWXNET,44.46784973144531,-88.02159881591797,181.39999389648438,-9999.0,null,null,null,true
AT875,G7VNN-2 Suffolk                      UK,APRSWXNET,52.30220031738281,1.0399999618530273,63.599998474121094,-9999.0,null,null,null,true
D8532,DW8532 Brewer                     ME US,APRSWXNET,44.77117156982422,-68.78417205810547,15.0,-9999.0,null,null,null,true
AR212,WX4MAP Phenix City                AL US,APRSWXNET,32.50532913208008,-85.01917266845703,170.0,-9999.0,null,null,null,true
D7202,DW7202 Grapeview                  WA US,APRSWXNET,47.29349899291992,-122.89433288574219,22.860000610351562,-9999.0,null,null,null,true
AR213,W4HSV Huntsville                  AL US,APRSWXNET,34.756168365478516,-86.6780014038086,229.0,-9999.0,null,null,null,true
AR210,N4IDX-7 Youngtown                 AL US,APRSWXNET,34.40782928466797,-87.39366912841797,295.0,-9999.0,null,null,null,true
D8534,DW8534 Maypearl                   TX US,APRSWXNET,32.305999755859375,-96.93000030517578,521.0,-9999.0,null,null,null,true
AS541,KF4MSV Bristol                    TN US,APRSWXNET,36.55833053588867,-82.15666961669922,525.0,-9999.0,null,null,null,true
AS542,K9RGI Telford                     TN US,APRSWXNET,36.19449996948242,-82.5530014038086,530.0,-9999.0,null,null,null,true
AT872,VE3ZEB-1 London                   ON CA,APRSWXNET,42.966251373291016,-81.2479476928711,250.0,-9999.0,null,null,null,true
AT879,KF6RAL-12 Logan                   UT US,APRSWXNET,41.73619842529297,-111.8655014038086,1354.5999755859375,-9999.0,null,null,null,true
AR216,W7PG-12 Home Creek                MT US,APRSWXNET,45.60200119018555,-105.93699645996094,1342.0,-9999.0,null,null,null,true
D7205,DW7205 North Sandwich             NH US,APRSWXNET,43.85783004760742,-71.39949798583984,247.0,-9999.0,null,null,null,true
D7206,DW7206 Mokau                         NZ,APRSWXNET,-38.70249938964844,174.6163330078125,14.0,-9999.0,null,null,null,true
AT878,KK5EDD Mannford                   OK US,APRSWXNET,36.15129852294922,-96.3511962890625,234.0,-9999.0,null,null,null,true
D8537,DW8537 Leander                    TX US,APRSWXNET,30.586669921875,-97.97532653808594,309.70001220703125,-9999.0,null,null,null,true
D7207,DW7207 Sheridan                   IN US,APRSWXNET,40.08633041381836,-86.1563720703125,935.0,-9999.0,null,null,null,true
AT877,K2MTS-1 Averill Park              NY US,APRSWXNET,42.63970184326172,-73.57150268554688,193.1999969482422,-9999.0,null,null,null,true
NGHP4,QUEBRADA GUABA NEAR NAGUABO 6NW  PR US        USGS,HADS2,18.283889770507812,-65.78888702392578,195.10000610351562,-9999.0,null,null,null,true
AT876,KC9DNW Phillips                   WI US,APRSWXNET,45.617000579833984,-90.4800033569336,482.0,-9999.0,null,null,null,true
AS580,N1LMA Westerly                    RI US,APRSWXNET,41.39366912841797,-71.81466674804688,64.0,-9999.0,null,null,null,true
BHPNK,Pink Mtn.                        BC CN,utmesnet,57.00189971923828,-122.35359954833984,1204.0,-9999.0,null,null,null,true
AS583,KG4PID-15 Bear Creek              AL US,APRSWXNET,34.290828704833984,-87.70532989501953,258.0,-9999.0,null,null,null,true
AS584,KC2RCU Bryan                      OH US,APRSWXNET,41.50482940673828,-84.58917236328125,253.0,-9999.0,null,null,null,true
AR250,KA8SCP-4 Westford                 MA US,APRSWXNET,42.61008071899414,-71.46697998046875,70.0999984741211,-9999.0,null,null,null,true
C6520,CW6520 Winslow                       UK,APRSWXNET,51.948001861572266,-0.882830023765564,120.0,-9999.0,null,null,null,true
POTSD,Potrero                          CA US,utmesnet,32.60438919067383,-116.60743713378906,719.2999877929688,-9999.0,null,null,null,true
C7857,CW7857 Dana Point                 CA US,APRSWXNET,33.48400115966797,-117.70149993896484,87.0,-9999.0,null,null,null,true
TFAW4,TOWER FALLS RS                   WY US,RAWS,44.916900634765625,-110.42060089111328,1909.9000244140625,-9999.0,null,null,null,true
D8507,DW8507 Wallingford                   UK,APRSWXNET,51.577999114990234,-1.1345000267028809,50.0,-9999.0,null,null,null,true
CRGC1,CORNING                          CA US,RAWS,39.938899993896484,-122.1697006225586,88.0999984741211,-9999.0,null,null,null,true
D8508,DW8508 Sile                          TR,APRSWXNET,41.099998474121094,29.600000381469727,100.0,-9999.0,null,null,null,true
D8509,DW8509 San Jose                   CA US,APRSWXNET,37.25933074951172,-121.89533233642578,57.0,-9999.0,null,null,null,true
RRQN5,RED RIVER NEAR QUESTA 2E         NM US        USGS,HADS2,36.703330993652344,-105.56777954101562,2271.39990234375,-9999.0,null,null,null,true
YFB1,Iqaluit, NF,gpsmet,63.73149871826172,-68.54299926757812,20.016599655151367,-9999.0,null,null,null,true
TXTA,Taylor, TX,gpsmet,30.564199447631836,-97.44499969482422,173.96170043945312,-9999.0,null,null,null,true
AR245,K7HRT Greenacres                  WA US,APRSWXNET,47.61466979980469,-117.18350219726562,707.0,-9999.0,null,null,null,true
D8501,DW8501 Madrid                        ES,APRSWXNET,40.44382858276367,-3.5855000019073486,707.0,-9999.0,null,null,null,true
AS574,W4JKJ-2 Jupiter                   FL US,APRSWXNET,26.928329467773438,-80.24299621582031,12.0,-9999.0,null,null,null,true
AS575,IW0DEG Vigarano Mainarda             IT,APRSWXNET,44.841941833496094,11.489870071411133,11.0,-9999.0,null,null,null,true
TTKA2,TATITLEK                         AK US SNOTEL,utmesnet,60.86000061035156,-146.67999267578125,15.199999809265137,-9999.0,null,null,null,true
D8502,DW8502 Franklin                   MA US,APRSWXNET,42.12117004394531,-71.43782806396484,60.0,-9999.0,null,null,null,true
D8505,DW8505 Livingston                 TX US,APRSWXNET,30.699840545654297,-94.84709167480469,81.0,-9999.0,null,null,null,true
NEBI3,BRUSH CREEK NEAR NEBRASKA 2NW    IN US        USGS,HADS2,39.07027816772461,-85.4861068725586,221.0,-9999.0,null,null,null,true
AS579,GW7ERI Chepstow                      UK,APRSWXNET,51.63933181762695,-2.663330078125,25.0,-9999.0,null,null,null,true
LABL1,E Bank, Bayou LaBranche, LA,NOS-NWLON,30.049999237060547,-90.36830139160156,0.0,-9999.0,null,null,null,true
SUP3,Newberry, MI,gpsmet,46.30270004272461,-85.51300048828125,256.9070129394531,-9999.0,null,null,null,true
SUP2,Escanaba, MI,gpsmet,45.7495002746582,-87.0739974975586,189.86849975585938,-9999.0,null,null,null,true
AS573,K0BSJ Excelsior Springs           MO US,APRSWXNET,39.374168395996094,-94.20950317382812,310.0,-9999.0,null,null,null,true
AS570,KC7EHF Houston                    TX US,APRSWXNET,29.586669921875,-95.11000061035156,6.699999809265137,-9999.0,null,null,null,true
D8520,DW8520 Lawrenceville              GA US,APRSWXNET,34.02299880981445,-83.94416809082031,343.0,-9999.0,null,null,null,true
C6532,CW6532 Tucson                     AZ US,APRSWXNET,32.186668395996094,-110.73916625976562,927.0,-9999.0,null,null,null,true
C5201,CW5201 Chilliwack                    CA,APRSWXNET,49.099998474121094,-122.0616683959961,8.0,-9999.0,null,null,null,true
CFC6,Colfax, CA,gpsmet,39.07939910888672,-120.93800354003906,645.9880981445312,-9999.0,null,null,null,true
C6531,CW6531 Mead                       CO US,APRSWXNET,40.20832824707031,-104.9366683959961,1493.0,-9999.0,null,null,null,true
C7865,CW7865 Delavan                    IL US,APRSWXNET,40.361968994140625,-89.54138946533203,177.0,-9999.0,null,null,null,true
C5202,CW5202 Mount Sinai                NY US,APRSWXNET,40.92499923706055,-73.01699829101562,49.0,-9999.0,null,null,null,true
C7869,CW7869 Austin                     TX US,APRSWXNET,30.371049880981445,-97.95765686035156,239.89999389648438,-9999.0,null,null,null,true
C5204,CW5204 Harpers Ferry              WV US,APRSWXNET,39.338558197021484,-77.7882080078125,131.0,-9999.0,null,null,null,true
C6538,CW6538 Cattolica                     IT,APRSWXNET,43.966670989990234,12.733329772949219,20.0,-9999.0,null,null,null,true
BSPNV,Bishop Flat,nvdot,41.2690315246582,-114.82707214355469,1830.0,-9999.0,null,null,null,true
C5207,CW5207 Surry                      VA US,APRSWXNET,37.17206954956055,-76.80695343017578,27.0,-9999.0,null,null,null,true
BISS1,LYNCHES RIVER NEAR BISHOPVILLE 3 SC US        USGS,HADS2,34.25,-80.2138900756836,47.5,-9999.0,null,null,null,true
D8519,DW8519 Yucca                      AZ US,APRSWXNET,34.73566818237305,-114.21666717529297,402.0,-9999.0,null,null,null,true
TXSE,Seguin, TX,gpsmet,29.59079933166504,-97.99800109863281,172.11630249023438,-9999.0,null,null,null,true
CCS,Clear Creek Summit I70           UT US UTAH DOT,utmesnet,38.590999603271484,-112.49440002441406,2165.0,-9999.0,null,null,null,true
ALAC2,RIO GRANDE RIVER AT ALAMOSA      CO US       CODWR,HADS2,37.481109619140625,-105.87944030761719,2296.10009765625,-9999.0,null,null,null,true
C7872,CW7872 Citta di Castello             IT,APRSWXNET,43.47800064086914,12.253000259399414,310.0,-9999.0,null,null,null,true
TXSA,San Angelo, TX,gpsmet,31.4143009185791,-100.4729995727539,590.2348022460938,-9999.0,null,null,null,true
C5210,CW5210 Farmington                 UT US,APRSWXNET,40.98733139038086,-111.92867279052734,1288.0,-9999.0,null,null,null,true
AT897,KD5UIG Krum                       TX US,APRSWXNET,33.25667190551758,-97.22132873535156,225.60000610351562,-9999.0,null,null,null,true
AT896,PU5BHV Rodeio                        BR,APRSWXNET,-26.90959930419922,-49.365478515625,94.0,-9999.0,null,null,null,true
D8511,DW8511 Milan                      TN US,APRSWXNET,35.86663818359375,-88.74681091308594,144.0,-9999.0,null,null,null,true
TXSM,San Marcos, TX,gpsmet,29.877899169921875,-97.90299987792969,184.4716033935547,-9999.0,null,null,null,true
AT895,PA1PV Haarlem                        NL,APRSWXNET,52.36716842651367,4.659170150756836,9.0,-9999.0,null,null,null,true
AR232,KC7RJK-2 Eugene                   OR US,APRSWXNET,44.10887908935547,-123.14888000488281,116.0,-9999.0,null,null,null,true
NPBG1,NORTH FORK PEACHTREE CK AT BUFOR GA US        USGS,HADS2,33.831390380859375,-84.34278106689453,246.89999389648438,-9999.0,null,null,null,true
AT894,KD7RJ Bethany                     OR US,APRSWXNET,45.56412887573242,-122.84053039550781,85.0,-9999.0,null,null,null,true
D8513,DW8513 Seattle                    WA US,APRSWXNET,47.7016716003418,-122.37650299072266,64.0,-9999.0,null,null,null,true
CAVU1,CAVE VALLEY                      UT US SCAN,utmesnet,37.36000061035156,-113.12000274658203,1918.4000244140625,-9999.0,null,null,null,true
D8514,DW8514 La Veta                    CO US,APRSWXNET,37.52000045776367,-105.02916717529297,2164.10009765625,-9999.0,null,null,null,true
AS569,KF4YYH-2 Reedy                    WV US,APRSWXNET,38.88618850708008,-81.3949966430664,228.60000610351562,-9999.0,null,null,null,true
AS567,G7ITT Appleby-in-Westmorland         UK,APRSWXNET,54.62950134277344,-2.4908299446105957,167.0,-9999.0,null,null,null,true
PIBC1,BLACK DIAMOND                    CA US,RAWS,37.95000076293945,-121.8843994140625,487.70001220703125,-9999.0,null,null,null,true
AT899,N5BZA Paducah                     KY US,APRSWXNET,37.012901306152344,-88.50749206542969,117.0,-9999.0,null,null,null,true
TXSG,Saginaw, TX,gpsmet,32.8557014465332,-97.34400177001953,208.68699645996094,-9999.0,null,null,null,true
AT898,KK4XZ Shallotte                   NC US,APRSWXNET,33.931461334228516,-78.37387084960938,12.800000190734863,-9999.0,null,null,null,true
DARN7,DAVIDSON RIVER                   NC US,RAWS,35.35060119628906,-82.77860260009766,975.4000244140625,-9999.0,null,null,null,true
KESC1,SACRAMENTO RVR BLO KESWICK DAM W CA US,HADS2,40.60166931152344,-122.44332885742188,146.3000030517578,-9999.0,null,null,null,true
UTCC2,UTE CREEK                        CO US SNOTEL,utmesnet,37.61000061035156,-105.37000274658203,3246.10009765625,-9999.0,null,null,null,true
SQFI1,SQUAW FLAT                       ID US SNOTEL,utmesnet,44.77000045776367,-116.25,1902.0,-9999.0,null,null,null,true
TXVA,Victoria, TX,gpsmet,28.83489990234375,-96.91000366210938,37.15420150756836,-9999.0,null,null,null,true
C6744,CW6744 Jasper                     GA US,APRSWXNET,34.53116989135742,-84.41767120361328,504.3999938964844,-9999.0,null,null,null,true
C5416,CW5416 Canby                      OR US,APRSWXNET,45.27967071533203,-122.68766784667969,30.5,-9999.0,null,null,null,true
C6747,CW6747 Boalsburg                  PA US,APRSWXNET,40.78327178955078,-77.75264739990234,365.0,-9999.0,null,null,null,true
C6746,CW6746 Cherry Valley              MA US,APRSWXNET,42.24509811401367,-71.86621856689453,252.0,-9999.0,null,null,null,true
FRVM3,Fall River, MA,nosports,41.70500183105469,-71.16300201416016,0.0,-9999.0,null,null,null,true
AR427,AH6GR Maui                        HI US,APRSWXNET,20.87483024597168,-156.51600646972656,264.6000061035156,-9999.0,null,null,null,true
AR428,KF4YYH Largo                      FL US,APRSWXNET,27.889829635620117,-82.73217010498047,5.5,-9999.0,null,null,null,true
CDW,Lake Mendocino                   CA US,utmesnet,39.20309829711914,-123.185302734375,204.1999969482422,-9999.0,null,null,null,true
AS753,KI7ZC Sequim                      WA US,APRSWXNET,48.03504180908203,-123.18573760986328,466.0,-9999.0,null,null,null,true
TJLO1,TOM JENKINS LAKE NEAR BURR OAK 1 OH US  USARMY-COE,HADS2,39.54167175292969,-82.05750274658203,207.60000610351562,-9999.0,null,null,null,true
THFI1,LITTLE CREEK                     ID US,RAWS,44.722801208496094,-114.99639892578125,1394.5,-9999.0,null,null,null,true
D8722,DW8722 Blue Ridge                 TX US,APRSWXNET,33.34682846069336,-96.35472106933594,196.0,-9999.0,null,null,null,true
D8724,DW8724 Leon                          NI,APRSWXNET,12.09967041015625,-86.73500061035156,17.0,-9999.0,null,null,null,true
AR426,K4BS Dahlonega                    GA US,APRSWXNET,34.55699920654297,-84.29216766357422,554.5,-9999.0,null,null,null,true
D8725,DW8725 Lleida                        ES,APRSWXNET,41.60382843017578,0.6408299803733826,168.0,-9999.0,null,null,null,true
AGUU1,AGUA CANYON                      UT US SNOTEL,utmesnet,37.52000045776367,-112.2699966430664,2712.699951171875,-9999.0,null,null,null,true
PKFO3,BUCKEYE                          OR US,RAWS,43.036399841308594,-122.6552963256836,690.0999755859375,-9999.0,null,null,null,true
D8740,DW8740 Dalby                         AU,APRSWXNET,-27.18967056274414,151.27467346191406,315.0,-9999.0,null,null,null,true
SFFI1,SKI HILL                         ID US,RAWS,44.94279861450195,-116.18830108642578,1614.5,-9999.0,null,null,null,true
JNSC2,JONES HILL                       CO US,RAWS,39.04140090942383,-106.00360107421875,2900.199951171875,-9999.0,null,null,null,true
OSCM8,OSCAR                            MT US,RAWS,47.32830047607422,-108.92500305175781,1086.5999755859375,-9999.0,null,null,null,true
CEN,Centerville                      UT US UTAH DOT,utmesnet,40.9510383605957,-111.89163208007812,1289.9000244140625,-9999.0,null,null,null,true
TXTY,Tyler, TX,gpsmet,32.24959945678711,-95.39399719238281,146.4219970703125,-9999.0,null,null,null,true
D7407,DW7407 Poulsbo                    WA US,APRSWXNET,47.74549865722656,-122.6363296508789,68.0,-9999.0,null,null,null,true
AS749,K4OZS-11 Ocala                    FL US,APRSWXNET,29.16183090209961,-82.18000030517578,22.0,-9999.0,null,null,null,true
D8739,DW8739 Carmichael                 CA US,APRSWXNET,38.65571975708008,-121.33654022216797,27.0,-9999.0,null,null,null,true
C6761,CW6761 Aldeanueva de Vera            ES,APRSWXNET,40.130821228027344,-5.696599960327148,648.0,-9999.0,null,null,null,true
C5430,CW5430 North Hills                PA US,APRSWXNET,40.1162109375,-75.16532897949219,87.0,-9999.0,null,null,null,true
D8730,DW8730 Dhaka                         BD,APRSWXNET,23.796079635620117,90.41690063476562,34.400001525878906,-9999.0,null,null,null,true
D7400,DW7400 Warr Acres                 OK US,APRSWXNET,35.53282928466797,-97.61466979980469,398.6000061035156,-9999.0,null,null,null,true
D7401,DW7401 El Dorado Hills            CA US,APRSWXNET,38.682498931884766,-121.0114974975586,416.0,-9999.0,null,null,null,true
KOPA1,KOPTIS FARMS                     AL US SCAN,utmesnet,30.520000457763672,-87.69999694824219,41.099998474121094,-9999.0,null,null,null,true
D7403,DW7403 Galena                     OH US,APRSWXNET,40.207828521728516,-82.90882873535156,303.0,-9999.0,null,null,null,true
D8735,DW8735 Yachats                    OR US,APRSWXNET,44.31053924560547,-124.10030364990234,28.0,-9999.0,null,null,null,true
AR415,K1HU Wellesley                    MA US,APRSWXNET,42.31050109863281,-71.24749755859375,50.0,-9999.0,null,null,null,true
D7404,DW7404 Mount Joy                  PA US,APRSWXNET,40.09383010864258,-76.54083251953125,122.0,-9999.0,null,null,null,true
AR412,KL1SF-7 Grand Canyon              AZ US,APRSWXNET,36.05437088012695,-112.13133239746094,2082.0,-9999.0,null,null,null,true
ALCA2,Alaska Hwy @ Canadian Border MP 1221.8,akdotroad,62.620540618896484,-141.00750732421875,602.0,-9999.0,null,null,null,true
OVLW1,OROVILLE                         WA US,RAWS,48.96310043334961,-119.49169921875,442.0,-9999.0,null,null,null,true
AR413,W5JWW Sumner                      MS US,APRSWXNET,33.9711799621582,-90.36638641357422,46.29999923706055,-9999.0,null,null,null,true
FERI1,FENN                             ID US,RAWS,46.099998474121094,-115.53469848632812,463.29998779296875,-9999.0,null,null,null,true
C6727,CW6727 Gore                       VA US,APRSWXNET,39.274169921875,-78.29633331298828,267.0,-9999.0,null,null,null,true
C6726,CW6726 Winchester                    UK,APRSWXNET,51.06972885131836,-1.3399499654769897,84.0,-9999.0,null,null,null,true
MRLV1,MARLBORO                         VT US,RAWS,42.837799072265625,-72.73500061035156,513.9000244140625,-9999.0,null,null,null,true
EMOG1,ICHAWAYNOCHAWAY CREEK NEAR ELMOD GA US        USGS,HADS2,31.295000076293945,-84.4880599975586,42.70000076293945,-9999.0,null,null,null,true
HHMC1,HIGHLAND MEADOW NEAR KIT CARSON  CA US,HADS2,38.625,-120.13333129882812,2377.39990234375,-9999.0,null,null,null,true
AR450,WB0RXX Montevideo                 MN US,APRSWXNET,44.9398307800293,-95.71566772460938,312.20001220703125,-9999.0,null,null,null,true
AS782,KB7HFS Tulalip                    WA US,APRSWXNET,48.0407600402832,-122.25346374511719,64.5999984741211,-9999.0,null,null,null,true
AR451,WA4ROX Largo                      FL US,APRSWXNET,27.876649856567383,-82.78588104248047,14.600000381469727,-9999.0,null,null,null,true
DARL1,AMITE RIVER NEAR DARLINGTON 4WNW LA US        USGS,HADS2,30.88888931274414,-90.84443664550781,44.5,-9999.0,null,null,null,true
RYCI1,REYNOLDS CREEK                   ID US SCAN,utmesnet,43.06999969482422,-116.75,1706.9000244140625,-9999.0,null,null,null,true
C6723,CW6723 Oakland                    CA US,APRSWXNET,37.79582977294922,-122.20333099365234,61.0,-9999.0,null,null,null,true
CFO,CEDAR FORT                       UT US TOOELE,utmesnet,40.309165954589844,-112.101318359375,1585.0,-9999.0,null,null,null,true
C6724,CW6724 Aptos                      CA US,APRSWXNET,37.01118850708008,-121.90122985839844,221.0,-9999.0,null,null,null,true
BHRO3,BOARD HOLLOW                     OR US,RAWS,44.60390090942383,-120.68470001220703,1276.5,-9999.0,null,null,null,true
LMCN2,LAMANCE CREEK                    NV US SNOTEL,utmesnet,41.52000045776367,-117.62999725341797,1828.800048828125,-9999.0,null,null,null,true
LMCN1,MIDDLE CK AT SOUTHWEST 40TH STRE NE US        USGS,HADS2,40.80556106567383,-96.77749633789062,355.1000061035156,-9999.0,null,null,null,true
AS775,KP4LA Trujillo Alto               PR US,APRSWXNET,18.35869026184082,-66.02777862548828,82.0,-9999.0,null,null,null,true
NBYC1,NACIMIENTO RIVER BELOW SAPAGUE N CA US        USGS,HADS2,35.78860855102539,-121.09278106689453,243.8000030517578,-9999.0,null,null,null,true
AS772,KC0NWS Kansas City                MO US,APRSWXNET,39.27750015258789,-94.66349792480469,320.0,-9999.0,null,null,null,true
AR441,N1CNV-1 Newington                 CT US,APRSWXNET,41.684608459472656,-72.7402572631836,44.0,-9999.0,null,null,null,true
AS773,KC7MGR High Camp                  ID US,APRSWXNET,45.863040924072266,-116.12274169921875,1862.300048828125,-9999.0,null,null,null,true
D8700,DW8700 Soquel                     CA US,APRSWXNET,37.05475997924805,-121.95250701904297,143.0,-9999.0,null,null,null,true
D8701,DW8701 Los Barriles                  MX,APRSWXNET,23.70594024658203,-109.70745849609375,25.0,-9999.0,null,null,null,true
AS778,W3HOA-2 Berwyn                    PA US,APRSWXNET,40.011070251464844,-75.44222259521484,137.1999969482422,-9999.0,null,null,null,true
AS776,KK6KU Rosamond                    CA US,APRSWXNET,34.86867141723633,-118.20916748046875,737.0,-9999.0,null,null,null,true
AR445,N4XI-9 Henderson                  KY US,APRSWXNET,37.88800048828125,-87.54367065429688,122.0,-9999.0,null,null,null,true
AR446,N4XI-3 Evansville                 IN US,APRSWXNET,38.03200149536133,-87.5790023803711,118.0,-9999.0,null,null,null,true
AS770,G7NPW-1 Chaddesden; Derby            UK,APRSWXNET,52.93532943725586,-1.4364999532699585,63.0,-9999.0,null,null,null,true
WGRM8,WEST GLACIER                     MT US,RAWS,48.51060104370117,-113.99669647216797,964.7000122070312,-9999.0,null,null,null,true
C6730,CW6730 Tampa                      FL US,APRSWXNET,27.907800674438477,-82.45088958740234,15.0,-9999.0,null,null,null,true
TXWA,Waco, TX,gpsmet,31.577699661254883,-97.11100006103516,128.5758056640625,-9999.0,null,null,null,true
C5400,CW5400 Hayti                      MO US,APRSWXNET,36.23379135131836,-89.74578094482422,82.0,-9999.0,null,null,null,true
C6734,CW6734 Reform                     OH US,APRSWXNET,40.150169372558594,-82.24166870117188,322.0,-9999.0,null,null,null,true
C5402,CW5402 Stavanger                     NO,APRSWXNET,58.939178466796875,5.5921502113342285,30.0,-9999.0,null,null,null,true
JTCT2,Junction 14 SE,LCRA_quart,30.352100372314453,-99.59140014648438,628.802001953125,-9999.0,null,null,null,true
C5404,CW5404 Dallas                     OR US,APRSWXNET,44.917999267578125,-123.29582977294922,86.0,-9999.0,null,null,null,true
JUFW1,JUNIPER DUNES                    WA US,RAWS,46.3577995300293,-118.86859893798828,298.3999938964844,-9999.0,null,null,null,true
C6735,CW6735 Des Moines                 IA US,APRSWXNET,41.60866928100586,-93.66316986083984,272.0,-9999.0,null,null,null,true
D8716,DW8716 Moyie Springs              ID US,APRSWXNET,48.72467041015625,-116.23332977294922,695.0,-9999.0,null,null,null,true
STORM,Storm Peak Observatory           CO US DRI,utmesnet,40.45511245727539,-106.74427795410156,3209.89990234375,-9999.0,null,null,null,true
D8717,DW8717 Bayview                    ID US,APRSWXNET,47.97700119018555,-116.56466674804688,681.0,-9999.0,null,null,null,true
D8718,DW8718 Sandpoint                  ID US,APRSWXNET,48.37847900390625,-116.4811782836914,671.0,-9999.0,null,null,null,true
STP40,Stevens Pass-Schmidt Haus        WA US NWAVAL,utmesnet,47.75,-121.08999633789062,1218.9000244140625,-9999.0,null,null,null,true
TXWF,Wichita Falls, TX,gpsmet,33.85390090942383,-98.50599670410156,307.6883850097656,-9999.0,null,null,null,true
LMCO3,LITTLE MCCOY CREEK               OR US,RAWS,42.708099365234375,-118.51000213623047,1548.4000244140625,-9999.0,null,null,null,true
D8710,DW8710 Ruislip                       UK,APRSWXNET,51.57749938964844,-0.40167000889778137,53.0,-9999.0,null,null,null,true
D8711,DW8711 Orem                       UT US,APRSWXNET,40.277828216552734,-111.7145004272461,1404.0,-9999.0,null,null,null,true
VERP4,RIO GRANDE NEAR EL VERDE NEAR RI PR US        USGS,HADS2,18.348329544067383,-65.84166717529297,38.099998474121094,-9999.0,null,null,null,true
D8712,DW8712 Villaverde de Pontones        ES,APRSWXNET,43.4133415222168,-3.7016100883483887,18.0,-9999.0,null,null,null,true
AR436,N0KTA-2 Mulvane                   KS US,APRSWXNET,37.47766876220703,-97.24017333984375,381.0,-9999.0,null,null,null,true
AS768,KF6RAL-6 Great Salt Lake Marina   UT US,APRSWXNET,40.73379898071289,-112.2109375,1282.0,-9999.0,null,null,null,true
AR437,N0OHO-1 Sioux Center              IA US,APRSWXNET,43.08407974243164,-96.16478729248047,446.0,-9999.0,null,null,null,true
D8714,DW8714 Eastleigh                     UK,APRSWXNET,50.97666931152344,-1.3491699695587158,19.0,-9999.0,null,null,null,true
C6706,CW6706 Natural Bridge Caverns     TX US,APRSWXNET,29.692060470581055,-98.34281158447266,310.8999938964844,-9999.0,null,null,null,true
PNOS1,LAKE MOULTRIE OBSERVATION SITE A SC US         NWS,HADS2,33.24720001220703,-80.03309631347656,28.299999237060547,-9999.0,null,null,null,true
MISCD,Scottdale                        MI US MAWN,utmesnet,42.024200439453125,-86.4302978515625,164.89999389648438,-9999.0,null,null,null,true
C6700,CW6700 Graham                     WA US,APRSWXNET,47.029170989990234,-122.239501953125,265.0,-9999.0,null,null,null,true
LXCT2,Llano 14 WNW,LCRA_quart,30.8316593170166,-98.88777923583984,384.697998046875,-9999.0,null,null,null,true
AS716,K7WIZ Weston                      WY US,APRSWXNET,44.98860168457031,-105.20165252685547,1175.0,-9999.0,null,null,null,true
BHRM6,BOGUE HOMO RIVER NEAR RICHTON 6N MS US        USGS,HADS,31.403610229492188,-89.02166748046875,35.70000076293945,-9999.0,null,null,null,true
AS714,K6TZ-10 Santa Barbra              CA US,APRSWXNET,34.405670166015625,-119.71517181396484,143.0,-9999.0,null,null,null,true
ECRI3,EAGLE CREEK BELOW RESERVOIR AT I IN US        USGS,HADS2,39.82194137573242,-86.30388641357422,240.8000030517578,-9999.0,null,null,null,true
EALC2,EAGLE RVR BLO WASTEWATER TREATME CO US        USGS,HADS2,39.6349983215332,-106.53250122070312,2249.39990234375,-9999.0,null,null,null,true
HWYP1,LACKAWAXEN RIVER AT HAWLEY       PA US        USGS,HADS2,41.47610855102539,-75.17250061035156,268.20001220703125,-9999.0,null,null,null,true
AS712,KC7GR Kent                        WA US,APRSWXNET,47.3526611328125,-122.17122650146484,126.5,-9999.0,null,null,null,true
TBURN,Burnt Mountain Shed              WA US WA DOT,utmesnet,48.177101135253906,-124.2146987915039,54.900001525878906,-9999.0,null,null,null,true
MOCT2,Mountain Home 17 WNW,LCRA_quart,30.202499389648438,-99.6617202758789,653.4140014648438,-9999.0,null,null,null,true
AS713,N3TR-2 Oxford                     PA US,APRSWXNET,39.766170501708984,-75.9403305053711,132.60000610351562,-9999.0,null,null,null,true
AS710,F2FT Cassis                          FR,APRSWXNET,43.2215690612793,5.534160137176514,95.0,-9999.0,null,null,null,true
SPCA2,SHEEP CAMP                       AK US,RAWS,59.65639877319336,-135.26780700683594,280.3999938964844,-9999.0,null,null,null,true
MISDK,Sandusky                         MI US MAWN,utmesnet,43.45560073852539,-82.8375015258789,237.10000610351562,-9999.0,null,null,null,true
MCD5,McDill AFB, FL,gpsmet,27.84980010986328,-82.53199768066406,9.863499641418457,-9999.0,null,null,null,true
ADLG1,LITTLE RIVER NEAR ADEL 7W        GA US        USGS,HADS2,31.155000686645508,-83.54389190673828,52.099998474121094,-9999.0,null,null,null,true
STOM1,STOM1                            ME US ME-CAR_Meso,utmesnet,44.15397262573242,-68.66669464111328,9.100000381469727,-9999.0,null,null,null,true
STOM4,STONINGTON                       MI US,RAWS,45.901100158691406,-86.93109893798828,199.0,-9999.0,null,null,null,true
ANIC1,ANACAPA ISLAND                   CA US,RAWS,34.01580047607422,-119.35970306396484,84.4000015258789,-9999.0,null,null,null,true
AS703,KC0D-6 Franktown                  CO US,APRSWXNET,39.30216979980469,-104.68866729736328,2072.639892578125,-9999.0,null,null,null,true
LFPBO,LAKE FOREST PARK TOWNE CENTER    WA US WAAQ,utmesnet,47.75,-122.27999877929688,11.899999618530273,-9999.0,null,null,null,true
AS704,N2ZUL Medford                     NY US,APRSWXNET,40.82958984375,-72.97535705566406,31.0,-9999.0,null,null,null,true
AS709,PY5CAM-1 Curitiba                    BR,APRSWXNET,-25.439170837402344,-49.27383041381836,870.0,-9999.0,null,null,null,true
MEFW1,SAWMILL FLATS                    WA US,RAWS,46.967498779296875,-121.08439636230469,914.4000244140625,-9999.0,null,null,null,true
MDCT2,Muldoon 6 WSW,LCRA_quart,29.775100708007812,-97.15518951416016,115.9469985961914,-9999.0,null,null,null,true
RROO3,RAILROAD OVERPASS                OR US SNOTEL,utmesnet,43.65999984741211,-122.20999908447266,838.2000122070312,-9999.0,null,null,null,true
HUWE,Huwei, TW,gpsmet,23.729400634765625,120.28700256347656,10.07129955291748,-9999.0,null,null,null,true
AS702,KE7GDS Tonopah                    NV US,APRSWXNET,38.087398529052734,-117.2530517578125,1783.0,-9999.0,null,null,null,true
MTSC1,MARTIS CREEK LAKE NEAR TRUCKEE 4 CA US  USARMY-COE,HADS2,39.32722091674805,-120.11332702636719,1767.800048828125,-9999.0,null,null,null,true
RHRS2,MT. RUSHMORE                     SD US,RAWS,43.87779998779297,-103.44969940185547,1645.9000244140625,-9999.0,null,null,null,true
AS700,W4MLN-2 West Jefferson            NC US,APRSWXNET,36.36471939086914,-81.50861358642578,1005.0,-9999.0,null,null,null,true
WELCH,Welch                            CO US CDPHE,utmesnet,39.6387825012207,-105.13948059082031,1741.9000244140625,-9999.0,null,null,null,true
AS738,KA0QOK Coon Rapids                MN US,APRSWXNET,45.171329498291016,-93.29032897949219,277.3999938964844,-9999.0,null,null,null,true
SHLM8,MARIAS RIVER NEAR SHELBY 6S      MT US        USBR,HADS2,48.42721939086914,-111.8888931274414,941.2000122070312,-9999.0,null,null,null,true
AS736,KB8TUY Ravenna                    OH US,APRSWXNET,41.161861419677734,-81.27752685546875,343.0,-9999.0,null,null,null,true
AS737,N8MNI London                      OH US,APRSWXNET,39.895301818847656,-83.45287322998047,318.0,-9999.0,null,null,null,true
AR409,KQ3F Harrisburg                   PA US,APRSWXNET,40.33150100708008,-76.7281723022461,152.0,-9999.0,null,null,null,true
MISA2,Mississippi                            Fort Greely,,63.88880157470703,-145.8695068359375,473.0,-9999.0,null,null,null,true
AS730,N8WJE Madison                     AL US,APRSWXNET,34.76082992553711,-86.7770004272461,214.89999389648438,-9999.0,null,null,null,true
AS734,W3AHR-2 Dowingtown                PA US,APRSWXNET,40.029998779296875,-75.67466735839844,228.0,-9999.0,null,null,null,true
